[{"address": "Буковина", "locations": [{"address": "м. Чернівці", "locations": [{"title": "Резиденцiя буковинських митрополитiв (мур.)", "address": "вул.Коцюбинського, 2", "lanlng": {"lat": 48.2968699, "lng": 25.9254174}}, {"title": "Корпус митрополита (мур.)", "address": "вул.Коцюбинського, 2", "lanlng": {"lat": 48.2968699, "lng": 25.9254174}}, {"title": "Семiнарський корпус (мур.)", "address": "вул.Коцюбинського, 2", "lanlng": {"lat": 48.2968699, "lng": 25.9254174}}, {"title": "Семiнарська церква (мур.)", "address": "вул.Коцюбинського, 2", "lanlng": {"lat": 48.2968699, "lng": 25.9254174}}, {"title": "Монастирський корпус (мур.)", "address": "вул.Коцюбинського, 2", "lanlng": {"lat": 48.2968699, "lng": 25.9254174}}, {"title": "Парк та парковi споруди", "address": "вул.Коцюбинського, 2", "lanlng": {"lat": 48.2968699, "lng": 25.9254174}}, {"title": "Миколаївська церква (дер.)", "address": "вул.Сагайдачного, 87-а", "lanlng": {"lat": 48.2923508, "lng": 25.9434821}}, {"title": "Успенська церква у Калічанцi (дер.)", "address": "вул.Новоуспенська, 2", "lanlng": {"lat": 48.2920787, "lng": 25.9358367}}, {"title": "Церква Рiздва Богородицi у Горечi (мур.)", "address": "вул.Троянiвська, 1", "lanlng": {"lat": 48.2896036, "lng": 25.9904883}}, {"title": "Дзвiниця церкви Рiздва Богородицi у Горечi (дер.)", "address": "вул.Троянiвська, 1", "lanlng": {"lat": 48.2896036, "lng": 25.9904883}}, {"title": "Спиридонiвська церква (дер.)", "address": "вул.Тольяттi, 8", "lanlng": {"lat": 48.2920787, "lng": 25.9358367}}, {"title": "Дзвiниця Спиридонiв-ської церкви (дер.)", "address": "вул.Тольяттi, 8", "lanlng": {"lat": 48.2920787, "lng": 25.9358367}}, {"title": "Вознесенська церква (дер.)", "address": "вул.Бориспiльська, 13", "lanlng": {"lat": 48.2761597, "lng": 25.9993243}}, {"title": "Дзвiниця Вознесенсь-кої церкви (дер.)", "address": "вул.Бориспiльська, 13", "lanlng": {"lat": 48.2761597, "lng": 25.9993243}}, {"title": "Вiрменська церква (мур.)", "address": "вул.Українська, 30", "lanlng": {"lat": 48.2887978, "lng": 25.9389645}}, {"title": "Мiський театр (мур.)", "address": "пл.Театральна, 1", "lanlng": {"lat": 48.291751, "lng": 25.9308778}}, {"title": "Ратуша (мур.)", "address": "пл.Центральна, 1", "lanlng": {"lat": 48.291614, "lng": 25.934894}}, {"title": "Адмiнiстративний будинок (мур.)", "address": "пл.Центральна, 10", "lanlng": {"lat": 48.2916795, "lng": 25.9352244}}, {"title": "Палац юстицiї (мур.)", "address": "вул.Радянська, 1", "lanlng": {"lat": 48.2920787, "lng": 25.9358367}}, {"title": "Комплекс Центральної площi (мур.)", "address": "пл.Центральна, 2,3, 4,5,6,7,8,9", "lanlng": {"lat": 48.2917548, "lng": 25.9355906}}, {"title": "Комплекс Театральної площi (мур.)", "address": "пл.Центральна, 2,3, 4,5,6,7,8,9", "lanlng": {"lat": 48.2917548, "lng": 25.9355906}}, {"title": "Будинок крайового уряду Буковини (мур.)", "address": "вул.О.Поповича, 2", "lanlng": {"lat": 48.286888, "lng": 25.934492}}, {"title": "Комплекс Герренгассе (мур.)", "address": "вул.О.Кобилянської, 1-57, 4-44", "lanlng": {"lat": 48.2920787, "lng": 25.9358367}}, {"title": "Комплекс Гауптштрассе (мур.)", "address": "вул.Головна, 4-58, 1-79", "lanlng": {"lat": 48.2951636, "lng": 25.9371319}}, {"title": "Комплекс музею народної архiтектури та побуту", "address": "вул.Московської Олiмпiади", "lanlng": {"lat": 48.29014240000001, "lng": 25.9777127}}]}, {"address": "Вижницький район", "locations": [{"title": "Церква Iоанна Сучавського (дер.)", "address": "с.Виженка", "lanlng": {"lat": 48.2097114, "lng": 25.1804079}}, {"title": "Дзвiниця церкви Iоанна Сучавського (дер.)", "address": "с.Виженка", "lanlng": {"lat": 48.2097114, "lng": 25.1804079}}, {"title": "Миколаївська церква (дер.)", "address": "с.Волока", "lanlng": {"lat": 48.33494160000001, "lng": 25.5286881}}]}, {"address": "Герцаївський район", "locations": [{"title": "Спиридонiвська церква (мур.)", "address": "м.Герца", "lanlng": {"lat": 48.1479286, "lng": 26.2545099}}, {"title": "Церква Рiздва Богородицi (мур.)", "address": "c.Байраки", "lanlng": {"lat": 48.1157087, "lng": 26.130454}}, {"title": "Дзвiниця церкви Рiздва Богородицi (мур.)", "address": "c.Байраки", "lanlng": {"lat": 48.1157087, "lng": 26.130454}}, {"title": "Дмитрiвська церква (дер.)", "address": "с.Букiвка", "lanlng": {"lat": 48.0528032, "lng": 26.0940797}}, {"title": "Успенська церква (мур.)", "address": "c.Велика Буда", "lanlng": {"lat": 48.155282, "lng": 26.088142}}, {"title": "Благовiщенська церква", "address": "c.Круп'янське", "lanlng": {"lat": 48.1609758, "lng": 26.0702044}}, {"title": "Дзвiниця Благовiщенської церкви", "address": "c.Круп'янське", "lanlng": {"lat": 48.1609758, "lng": 26.0702044}}, {"title": "Дмитрiвська церква (дер.)", "address": "c.Луковиця", "lanlng": {"lat": 48.1980496, "lng": 26.0874451}}, {"title": "Дзвiниця Дмитрiвської церкви (мур.)", "address": "c.Луковиця", "lanlng": {"lat": 48.1980496, "lng": 26.0874451}}, {"title": "Всiхсвятська церква (мур.)", "address": "c.Мала Буда", "lanlng": {"lat": 48.1644712, "lng": 26.1132612}}, {"title": "Успенська церква (мур.)", "address": "с.Могилiвка", "lanlng": {"lat": 48.1503197, "lng": 26.2719139}}, {"title": "Хрестовоздвиженська церква (дер.)", "address": "c.Пiдвальне", "lanlng": {"lat": 48.1341638, "lng": 26.1529598}}, {"title": "Михайлiвська (Архангельська) церква (дер.)", "address": "с.Петрашiвка", "lanlng": {"lat": 48.099398, "lng": 26.1100854}}, {"title": "Дмитрiвська церква (мур.)", "address": "с.Тернавка", "lanlng": {"lat": 48.1130089, "lng": 26.2177383}}, {"title": "Архангельська церква (дер.)", "address": "с.Цурінь", "lanlng": {"lat": 48.17196939999999, "lng": 26.1453067}}]}, {"address": "Глибоцький район", "locations": [{"title": "Козьмодем'янiвська церква (змiш.)", "address": "с.Бiла Криниця", "lanlng": {"lat": 47.975777, "lng": 25.8865511}}, {"title": "Успенський собор старообрядцiв (мур.)", "address": "с.Бiла Криниця", "lanlng": {"lat": 47.975777, "lng": 25.8865511}}, {"title": "Хрестовоздвиженська церква (дер.)", "address": "с.Верхнi Синiвцi", "lanlng": {"lat": 48.0613675, "lng": 25.8999653}}, {"title": "Миколаївська церква (дер.)", "address": "c.Поляна", "lanlng": {"lat": 48.0499107, "lng": 26.1168564}}, {"title": "Дзвiниця Миколаївської церкви (дер.)", "address": "c.Поляна", "lanlng": {"lat": 48.0499107, "lng": 26.1168564}}, {"title": "Успенська церква (мур.)", "address": "с.Турятка", "lanlng": {"lat": 48.0468224, "lng": 26.1458565}}]}, {"address": "Заставнівський район", "locations": [{"title": "Церква Рiздва Богородицi (мур.)", "address": "с.Василiв", "lanlng": {"lat": 48.604814, "lng": 25.8416058}}, {"title": "Успенська церква (дер.)", "address": "с.Веренчанка", "lanlng": {"lat": 48.5443793, "lng": 25.7418469}}, {"title": "Палац Зота (мур.)", "address": "с.Вiкно", "lanlng": {"lat": 48.5708601, "lng": 25.9658508}}, {"title": "Iоанiвська церква (мур.)", "address": "с.Вiкно", "lanlng": {"lat": 48.5708601, "lng": 25.9658508}}, {"title": "Церква Рiздва Богородицi (мур.)", "address": "c.Звенячин", "lanlng": {"lat": 48.62558310000001, "lng": 25.7325777}}, {"title": "Успенська церква (дер.)", "address": "c.Кулiвцi", "lanlng": {"lat": 48.6319093, "lng": 25.8292401}}, {"title": "Дзвiниця Успенської церкви (дер.)", "address": "c.Кулiвцi", "lanlng": {"lat": 48.6319093, "lng": 25.8292401}}, {"title": "Покровська церква (мур.)", "address": "с.Репужинцi", "lanlng": {"lat": 48.6560204, "lng": 25.790205}}, {"title": "Дзвiниця Покровської церкви (мур.)", "address": "с.Репужинцi", "lanlng": {"lat": 48.6560204, "lng": 25.790205}}, {"title": "Iванiвська церква (мур.)", "address": "c.Хрещатик", "lanlng": {"lat": 48.6282607, "lng": 25.7437924}}, {"title": "Дзвiниця Iванiвської церкви з каплицею (мур.)", "address": "c.Хрещатик", "lanlng": {"lat": 48.6282607, "lng": 25.7437924}}]}, {"address": "Кіцманський район", "locations": [{"title": "Миколаївська церква (дер.)", "address": "c.Берегомет", "lanlng": {"lat": 48.3633462, "lng": 25.6947401}}, {"title": "Дзвiниця Миколаївсь- кої церкви (дер.)", "address": "c.Берегомет", "lanlng": {"lat": 48.3633462, "lng": 25.6947401}}, {"title": "Успенська церква (дер.)", "address": "c.Валява", "lanlng": {"lat": 48.434273, "lng": 25.8386513}}, {"title": "Дзвiниця Успенської церкви (дер.)", "address": "c.Валява", "lanlng": {"lat": 48.434273, "lng": 25.8386513}}, {"title": "Успенська церква (мур.)", "address": "с.Глиниця", "lanlng": {"lat": 48.33491129999999, "lng": 25.7077698}}, {"title": "Успенська церква (дер.)", "address": "c.Дубiвцi", "lanlng": {"lat": 48.3540414, "lng": 25.711363}}, {"title": "Дзвiниця Успенської церкви (дер.)", "address": "c.Дубiвцi", "lanlng": {"lat": 48.3540414, "lng": 25.711363}}, {"title": "Церква Рiздва Богородицi (дер.)", "address": "с.Iванкiвцi", "lanlng": {"lat": 48.4542532, "lng": 25.6715781}}, {"title": "Вознесенська церква (мур.)", "address": "cмт.Лужани", "lanlng": {"lat": 48.3627105, "lng": 25.7753797}}, {"title": "Дзвiниця Вознесенсь- кої церкви (дер.)", "address": "смт.Лужани", "lanlng": {"lat": 48.3627105, "lng": 25.7753797}}, {"title": "Миколаївська церква (дер.)", "address": "с.Нижнi Станiвцi", "lanlng": {"lat": 48.3105744, "lng": 25.558458}}, {"title": "Дзвiниця Миколаївської церкви (дер.)", "address": "с.Нижнi Станiвцi", "lanlng": {"lat": 48.3105744, "lng": 25.558458}}, {"title": "Успенська церква (дер.)", "address": "с.Оршiвцi", "lanlng": {"lat": 48.4228645, "lng": 25.6241042}}, {"title": "Дзвiниця Успенської церкви (дер.)", "address": "с.Оршiвцi", "lanlng": {"lat": 48.4228645, "lng": 25.6241042}}, {"title": "Костянтинiвська церква (дер.)", "address": "c.Ошихлiби", "lanlng": {"lat": 48.4209522, "lng": 25.699248}}, {"title": "Дзвiниця Костянтинi- вської церкви (дер.)", "address": "c.Ошихлiби", "lanlng": {"lat": 48.4209522, "lng": 25.699248}}, {"title": "Церква Рiздва (мур.)", "address": "с.Шипинцi", "lanlng": {"lat": 48.376687, "lng": 25.7504481}}]}, {"address": "Новоселицький район", "locations": [{"title": "Троїцька церква (мур.)", "address": "с.Магала", "lanlng": {"lat": 48.2961322, "lng": 26.0403137}}, {"title": "Комплекс Iллiнської церкви (мур.)", "address": "с.Топорiвцi", "lanlng": {"lat": 48.3864413, "lng": 26.0862603}}, {"title": "Iллiнська церква (мур.)", "address": "с.Топорiвцi", "lanlng": {"lat": 48.3864413, "lng": 26.0862603}}, {"title": "Дзвiниця (мур.)", "address": "с.Топорiвцi", "lanlng": {"lat": 48.3864413, "lng": 26.0862603}}, {"title": "Огорожа (мур.)", "address": "с.Топорiвцi", "lanlng": {"lat": 48.3864413, "lng": 26.0862603}}]}, {"address": "Путильський район", "locations": [{"title": "Миколаївська церква (дер.)", "address": "", "lanlng": {"lat": 47.9159433, "lng": 25.0857895}}, {"title": "Дмитрiвська церква (дер.)", "address": "с.Дихтинець", "lanlng": {"lat": 48.0650787, "lng": 25.0429662}}, {"title": "Успенська церква (дер.)", "address": "с.Розтоки", "lanlng": {"lat": 48.1730518, "lng": 25.1331188}}, {"title": "Дзвiниця Успенської церкви (дер.)", "address": "с.Розтоки", "lanlng": {"lat": 48.1730518, "lng": 25.1331188}}, {"title": "Василiвська церква (дер.)", "address": "с.Конятин", "lanlng": {"lat": 48.042657, "lng": 24.9403163}}, {"title": "Дзвiниця Василiвської церкви (дер.)", "address": "с.Конятин", "lanlng": {"lat": 48.042657, "lng": 24.9403163}}, {"title": "Церква Рiздва Богородицi (дер.)", "address": "с.Селятин", "lanlng": {"lat": 47.8757993, "lng": 25.1900458}}, {"title": "Дзвiниця церкви Рiздва Богородицi (дер.)", "address": "с.Селятин", "lanlng": {"lat": 47.8757993, "lng": 25.1900458}}, {"title": "Церква Параскеви (дер.)", "address": "с.Усть-Путила", "lanlng": {"lat": 48.0933092, "lng": 25.1062439}}, {"title": "Дзвiниця церкви Параскеви (дер.)", "address": "с.Усть-Путила", "lanlng": {"lat": 48.0933092, "lng": 25.1062439}}, {"title": "Iллiнська церква (дер.)", "address": "с.Шепіт", "lanlng": {"lat": 47.7974526, "lng": 25.1536299}}, {"title": "Дзвiниця Iллiнської церкви (дер.)", "address": "с.Шепіт", "lanlng": {"lat": 47.7974526, "lng": 25.1536299}}]}, {"address": "Сокирянський район", "locations": [{"title": "Дмитрiвська церква (дер.)", "address": "с.Бiлоусiвка", "lanlng": {"lat": 48.5127429, "lng": 27.1854459}}, {"title": "Дзвiниця Дмитрiвської церкви (дер.)", "address": "с.Бiлоусiвка", "lanlng": {"lat": 48.5127429, "lng": 27.1854459}}]}, {"address": "Сторожинецький район", "locations": [{"title": "Михайлiвська церква (дер.)", "address": "с.Стара Жадова", "lanlng": {"lat": 48.20981039999999, "lng": 25.5125537}}]}, {"address": "Хотинський район", "locations": [{"title": "Комплекс споруд фортецi (мур.)", "address": "", "lanlng": {"lat": 48.4469175, "lng": 26.418688}}, {"title": "В'їзна башта замку (мур.)", "address": "", "lanlng": {"lat": 48.4469175, "lng": 26.418688}}, {"title": "Пiвденно-захiдна башта замку (мур.)", "address": "", "lanlng": {"lat": 48.4469175, "lng": 26.418688}}, {"title": "Комендантська башта замку (мур.)", "address": "", "lanlng": {"lat": 48.4469175, "lng": 26.418688}}, {"title": "Пiвнiчна башта замку (мур.)", "address": "", "lanlng": {"lat": 48.4469175, "lng": 26.418688}}, {"title": "Палац коменданта (мур.)", "address": "", "lanlng": {"lat": 48.4469175, "lng": 26.418688}}, {"title": "Замкова церква (мур.)", "address": "", "lanlng": {"lat": 48.4469175, "lng": 26.418688}}, {"title": "Подiльська брама (мур.)", "address": "", "lanlng": {"lat": 48.4469175, "lng": 26.418688}}, {"title": "Бендерська брама (мур.)", "address": "", "lanlng": {"lat": 48.4469175, "lng": 26.418688}}, {"title": "Ясська брама (мур.)", "address": "", "lanlng": {"lat": 48.4469175, "lng": 26.418688}}, {"title": "Руська брама (мур.)", "address": "", "lanlng": {"lat": 48.4469175, "lng": 26.418688}}, {"title": "Кам'янецька брама (мур.)", "address": "", "lanlng": {"lat": 48.4469175, "lng": 26.418688}}, {"title": "Бастiони з валами (зміш.)", "address": "", "lanlng": {"lat": 48.4469175, "lng": 26.418688}}, {"title": "Гарнiзоннi майстернi (мур.)", "address": "", "lanlng": {"lat": 48.4469175, "lng": 26.418688}}, {"title": "Церква Олександра Невського (мур.)", "address": "", "lanlng": {"lat": 48.4469175, "lng": 26.418688}}]}]},{"address": "Рівненщина", "locations": [{"address": "м. Рівне", "locations": [{"title": "Гiмназiя (мур.)", "address": "вул.Драгоманова, 19", "lanlng": {"lat": 50.61549, "lng": 26.248645}}, {"title": "Успенська церква (дер.)", "address": "вул.Шевченка, 113", "lanlng": {"lat": 50.626518, "lng": 26.248038}}, {"title": "Дзвiниця Успенської церкви (дер.)", "address": "вул.Шевченка, 113", "lanlng": {"lat": 50.626518, "lng": 26.248038}}]}, {"address": "Березнівський район", "locations": [{"title": "Руїни замку (мур.)", "address": "с.Губкiв", "lanlng": {"lat": 50.82833720000001, "lng": 27.0452394}}, {"title": "Преображенська церква (дер.)", "address": "с.Маринин", "lanlng": {"lat": 50.8053518, "lng": 27.1146389}}, {"title": "Дзвiниця Преображен- ської церкви (дер.)", "address": "с.Маринин", "lanlng": {"lat": 50.8053518, "lng": 27.1146389}}]}, {"address": "Володимирецький район", "locations": [{"title": "Миколаївська церква (мур.)", "address": "смт.Стара Рафалiвка", "lanlng": {"lat": 51.3706437, "lng": 25.8596788}}]}, {"address": "Гощанський район", "locations": [{"title": "Михайлiвська церква (мур.)", "address": "вул.Шевченка", "lanlng": {"lat": 50.5930359, "lng": 26.5847306}}, {"title": "Дзвiниця Михайлівської церкви (мур.)", "address": "вул.Шевченка", "lanlng": {"lat": 50.5930359, "lng": 26.5847306}}, {"title": "Успенська церква з дзвiницею (змiш.)", "address": "с.Дорогобуж", "lanlng": {"lat": 50.6107403, "lng": 26.5636715}}, {"title": "Преображенська церква (дер.)", "address": "с.Тучин", "lanlng": {"lat": 50.7044223, "lng": 26.5739783}}, {"title": "Дзвiниця Преображен-ської церкви (дер.)", "address": "с.Тучин", "lanlng": {"lat": 50.7044223, "lng": 26.5739783}}]}, {"address": "Дубнівський район", "locations": [{"title": "Замок князiв Острозьких-Любомирських (мур.)", "address": "вул.Шевченка", "lanlng": {"lat": 50.3210083, "lng": 25.8743649}}, {"title": "Надбрамний корпус (мур.)", "address": "вул.Шевченка", "lanlng": {"lat": 50.3210083, "lng": 25.8743649}}, {"title": "Палац (мур.)", "address": "вул.Шевченка", "lanlng": {"lat": 50.3210083, "lng": 25.8743649}}, {"title": "Казарма (мур.)", "address": "вул.Шевченка", "lanlng": {"lat": 50.3210083, "lng": 25.8743649}}, {"title": "Луцька брама (мур.)", "address": "вул.Галицького, 68", "lanlng": {"lat": 50.3210083, "lng": 25.8743649}}, {"title": "Монастир бернардинцiв (мур.)", "address": "вул.Галицького, 74", "lanlng": {"lat": 50.4185503, "lng": 25.7346722}}, {"title": "Костел (мур.)", "address": "вул.Галицького, 74", "lanlng": {"lat": 50.4185503, "lng": 25.7346722}}, {"title": "Вежа (мур.)", "address": "вул.Галицького, 74", "lanlng": {"lat": 50.4185503, "lng": 25.7346722}}, {"title": "Келiї (мур.)", "address": "вул.Галицького, 74", "lanlng": {"lat": 50.4185503, "lng": 25.7346722}}, {"title": "Монастир кармелiток (мур.)", "address": "вул.Шевченка, 51", "lanlng": {"lat": 50.3210083, "lng": 25.8743649}}, {"title": "Костел (мур.)", "address": "вул.Шевченка, 51", "lanlng": {"lat": 50.3210083, "lng": 25.8743649}}, {"title": "Келiї (мур.)", "address": "вул.Шевченка, 51", "lanlng": {"lat": 50.3210083, "lng": 25.8743649}}, {"title": "Юр'ївська церква (дер.)", "address": "вул.Садова", "lanlng": {"lat": 50.3210083, "lng": 25.8743649}}, {"title": "Дзвiниця Юр'ївської церкви (дер.)", "address": "вул.Садова", "lanlng": {"lat": 50.3210083, "lng": 25.8743649}}, {"title": "Михайлiвська церква (дер.)", "address": "с.Мирогоща Перша", "lanlng": {"lat": 50.4284366, "lng": 25.873143}}, {"title": "Дзвiниця Михайлівської церкви (дер.)", "address": "с.Мирогоща Перша", "lanlng": {"lat": 50.4284366, "lng": 25.873143}}]}, {"address": "Дубровицький район", "locations": [{"title": "Костел Iоанна Хрестителя (мур.)", "address": "вул.Воробинська", "lanlng": {"lat": 51.5875353, "lng": 26.5711226}}, {"title": "Церква Рiздва Богородицi (мур.)", "address": "вул.Воробинська", "lanlng": {"lat": 51.5875353, "lng": 26.5711226}}]}, {"address": "Зарічнянський район", "locations": [{"title": "Дмитрiвська церква (дер.)", "address": "с.Серники", "lanlng": {"lat": 51.8235457, "lng": 26.2277384}}, {"title": "Дзвiниця Дмитрівської церкви (дер.)", "address": "с.Серники", "lanlng": {"lat": 51.8235457, "lng": 26.2277384}}]}, {"address": "Здолбунівський район", "locations": [{"title": "Комплекс Троїцького мо-настиря-фортецi (мур.)", "address": "с.Дермань", "lanlng": {"lat": 50.3622533, "lng": 26.2323674}}, {"title": "Надбрамна башта-дзвiниця (мур.)", "address": "с.Дермань", "lanlng": {"lat": 50.3622533, "lng": 26.2323674}}, {"title": "Троїцька церква (мур.)", "address": "с.Дермань", "lanlng": {"lat": 50.3622533, "lng": 26.2323674}}, {"title": "Корпус келiй (мур.)", "address": "с.Дермань", "lanlng": {"lat": 50.3622533, "lng": 26.2323674}}, {"title": "Флiгель з теплою церквою (мур.)", "address": "с.Дермань", "lanlng": {"lat": 50.3622533, "lng": 26.2323674}}, {"title": "Криниця (мур.)", "address": "с.Дермань", "lanlng": {"lat": 50.3622533, "lng": 26.2323674}}, {"title": "Оборонний мур (мур.)", "address": "с.Дермань", "lanlng": {"lat": 50.3622533, "lng": 26.2323674}}]}, {"address": "Корецький район", "locations": [{"title": "Замок (мур.)", "address": "вул.Б.Хмельницького", "lanlng": {"lat": 50.6475559, "lng": 27.0850149}}, {"title": "Костел Св.Антонiя (мур.)", "address": "вул.Костельна", "lanlng": {"lat": 50.617932, "lng": 27.1498575}}, {"title": "Троїцький монастир (мур.)", "address": "вул.Київська, 56", "lanlng": {"lat": 50.6475559, "lng": 27.0850149}}, {"title": "Троїцький собор (мур.)", "address": "вул.Київська, 56", "lanlng": {"lat": 50.6475559, "lng": 27.0850149}}, {"title": "Корпус келiй (мур.)", "address": "вул.Київська, 56", "lanlng": {"lat": 50.6475559, "lng": 27.0850149}}, {"title": "Тепла церква Iоанна Предтечi (мур.)", "address": "вул.Київська, 56", "lanlng": {"lat": 50.6475559, "lng": 27.0850149}}, {"title": "Дзвiниця (мур.)", "address": "вул.Київська, 56", "lanlng": {"lat": 50.6475559, "lng": 27.0850149}}, {"title": "Миколаївська церква (мур.)", "address": "вул.Б.Хмельницького", "lanlng": {"lat": 50.6475559, "lng": 27.0850149}}, {"title": "Келiї монастиря францисканiв (мур.)", "address": "вул.Монастирська", "lanlng": {"lat": 50.6475559, "lng": 27.0850149}}]}, {"address": "с.Великі Межирічі", "locations": [{"title": "Костел Св.Антонiя (мур.)", "address": "", "lanlng": {"lat": 50.65489090000001, "lng": 26.8652271}}, {"title": "Садиба графiв Стецьких (мур.)", "address": "", "lanlng": {"lat": 50.65489090000001, "lng": 26.8652271}}, {"title": "Палац (мур.)", "address": "", "lanlng": {"lat": 50.65489090000001, "lng": 26.8652271}}, {"title": "Флiгелi (мур.)", "address": "", "lanlng": {"lat": 50.65489090000001, "lng": 26.8652271}}, {"title": "Петропавлiвська церква (дер.)", "address": "", "lanlng": {"lat": 50.65489090000001, "lng": 26.8652271}}, {"title": "Покровська церква дер.)", "address": "с.Свiтанок", "lanlng": {"lat": 50.65489090000001, "lng": 26.8652271}}]}, {"address": "Костопільський район", "locations": [{"title": "Покровська церква(дер.)", "address": "с.Великий Стидин", "lanlng": {"lat": 51.0460696, "lng": 26.1741615}}, {"title": "Дзвiниця Покровської церкви (дер.)", "address": "с.Великий Стидин", "lanlng": {"lat": 51.0460696, "lng": 26.1741615}}, {"title": "Михайлiвська церква (дер.)", "address": "с.Тростянець", "lanlng": {"lat": 51.027251, "lng": 26.2523348}}, {"title": "Дзвiниця Михайлівської церкви (дер.)", "address": "с.Тростянець", "lanlng": {"lat": 51.027251, "lng": 26.2523348}}]}, {"address": "Млинівський район", "locations": [{"title": "Флiгель садиби Корецьких (мур.)", "address": "вул.I.Франка, 1б", "lanlng": {"lat": 50.5058579, "lng": 25.5985944}}, {"title": "Покровська церква (мур.)", "address": "вул.Кiрова", "lanlng": {"lat": 50.5079834, "lng": 25.6067099}}, {"title": "Дзвiниця Покровської церкви (мур.)", "address": "вул.Кiрова", "lanlng": {"lat": 50.5079834, "lng": 25.6067099}}]}, {"address": "Острозький район", "locations": [{"title": "Замок князiв Острозьких (мур.)", "address": "вул.Замкова, 5", "lanlng": {"lat": 50.326935, "lng": 26.523031}}, {"title": "\" Вежа мурована \" (мур.)", "address": "вул.Замкова, 5", "lanlng": {"lat": 50.326935, "lng": 26.523031}}, {"title": "Нова (Кругла) башта (мур.)", "address": "вул.Замкова, 5", "lanlng": {"lat": 50.326935, "lng": 26.523031}}, {"title": "Богоявленська церква (мур.)", "address": "вул.Замкова, 5", "lanlng": {"lat": 50.326935, "lng": 26.523031}}, {"title": "Надбрамна дзвiниця (мур.)", "address": "вул.Замкова, 5", "lanlng": {"lat": 50.326935, "lng": 26.523031}}, {"title": "Татарська надбрамна башта (мур.)", "address": "вул.Академiчна", "lanlng": {"lat": 50.3262535, "lng": 26.5220209}}, {"title": "Луцька надбрамна башта (мур.)", "address": "вул.Папанiна", "lanlng": {"lat": 50.3302878, "lng": 26.5221061}}, {"title": "Костел Успiння Дiви Марiї (мур.)", "address": "вул.Князiв Острозьких", "lanlng": {"lat": 50.3267156, "lng": 26.5161788}}]}, {"address": "с.Межиріч", "locations": [{"title": "Троїцький монастир- фортеця (мур.)", "address": "", "lanlng": {"lat": 50.2988723, "lng": 26.4756671}}, {"title": "Троїцька церква (мур.)", "address": "", "lanlng": {"lat": 50.2988723, "lng": 26.4756671}}, {"title": "Корпуси келiй з баштами (мур.)", "address": "", "lanlng": {"lat": 50.2988723, "lng": 26.4756671}}, {"title": "Пiвденно-схiдний корпус (мур.)", "address": "", "lanlng": {"lat": 50.2988723, "lng": 26.4756671}}, {"title": "Надбрамна дзвiниця (мур.)", "address": "", "lanlng": {"lat": 50.2988723, "lng": 26.4756671}}, {"title": "Мури з наріжними баштами (мур.)", "address": "", "lanlng": {"lat": 50.2988723, "lng": 26.4756671}}, {"title": "Землянi укрiплення мiста", "address": "", "lanlng": {"lat": 50.2988723, "lng": 26.4756671}}, {"title": "Мiська Заславська брама (мур.)", "address": "", "lanlng": {"lat": 50.2988723, "lng": 26.4756671}}, {"title": "Пiч (мур.)", "address": "", "lanlng": {"lat": 50.2988723, "lng": 26.4756671}}, {"title": "Михайлiвська церква (дер.)", "address": "с.Милятин", "lanlng": {"lat": 50.4524171, "lng": 26.6020612}}, {"title": "Троїцька церква (дер.)", "address": "с.Михалкiвцi", "lanlng": {"lat": 50.2988723, "lng": 26.4756671}}, {"title": "Дзвiниця Троїцької церкви (дер.)", "address": "с.Михалкiвцi", "lanlng": {"lat": 50.2988723, "lng": 26.4756671}}, {"title": "Руїни замку (мур.)", "address": "с.Новомалин", "lanlng": {"lat": 50.30116940000001, "lng": 26.3641678}}, {"title": "Церква Косьми i Дем'яна (дер.)", "address": "с.Розваж", "lanlng": {"lat": 50.3635398, "lng": 26.5116089}}, {"title": "Георгiївська церква (дер.)", "address": "с.Сiянцi", "lanlng": {"lat": 50.2988723, "lng": 26.4756671}}]}, {"address": "Рівненський район", "locations": [{"title": "Миколаївська церква (мур.)", "address": "с.Городок", "lanlng": {"lat": 50.692029, "lng": 26.1661365}}, {"title": "Дзвiниця Миколаївської церкви (дер.)", "address": "с.Городок", "lanlng": {"lat": 50.692029, "lng": 26.1661365}}, {"title": "Церква Св.Юрiя (дер.)", "address": "с.Грабiв", "lanlng": {"lat": 50.7187502, "lng": 26.1013227}}, {"title": "Замок (мур.)", "address": "смт.Клевань", "lanlng": {"lat": 50.7444784, "lng": 26.0171919}}, {"title": "Костел Благовiщення (мур.)", "address": "смт.Клевань", "lanlng": {"lat": 50.7444784, "lng": 26.0171919}}, {"title": "Дзвiниця костелу Благовiщення (мур.)", "address": "смт.Клевань", "lanlng": {"lat": 50.7444784, "lng": 26.0171919}}, {"title": "Церква Рiздва Христова (мур.)", "address": "смт.Клевань", "lanlng": {"lat": 50.7444784, "lng": 26.0171919}}, {"title": "Дзвiниця церкви Рiздва Христова (мур.)", "address": "смт.Клевань", "lanlng": {"lat": 50.7444784, "lng": 26.0171919}}, {"title": "Миколаївська церква (дер.)", "address": "с.Корнин", "lanlng": {"lat": 50.55782120000001, "lng": 26.2898572}}, {"title": "Дзвiниця Миколаївської церкви (дер.)", "address": "с.Корнин", "lanlng": {"lat": 50.55782120000001, "lng": 26.2898572}}, {"title": "Покровська церква(дер.)", "address": "с.Обарiв", "lanlng": {"lat": 50.6517639, "lng": 26.1715463}}, {"title": "Преображенська церква (дер.)", "address": "смт.Оржiв", "lanlng": {"lat": 50.7429779, "lng": 26.1163948}}, {"title": "Костел Св.Лаврентiя (мур.)", "address": "с.Тайкури", "lanlng": {"lat": 50.5312693, "lng": 26.3705847}}, {"title": "Руїни замку (мур.)", "address": "с.Тайкури", "lanlng": {"lat": 50.5312693, "lng": 26.3705847}}]}, {"address": "Радивилівський район", "locations": [{"title": "Церква Рiздва Богородицi (дер.)", "address": "с.Коритне", "lanlng": {"lat": 50.3096589, "lng": 25.2599672}}, {"title": "Покровська церква(дер.)", "address": "с.Митниця", "lanlng": {"lat": 50.2931546, "lng": 25.1350225}}, {"title": "Миколаївська церква (дер.)", "address": "с.Пляшева", "lanlng": {"lat": 50.3575453, "lng": 25.2077437}}, {"title": "Меморiальний комплекс \"Козацькi могили\" (мур.)", "address": "с.Пляшева", "lanlng": {"lat": 50.3575453, "lng": 25.2077437}}, {"title": "Георгiївська церква (мур.)", "address": "с.Пляшева", "lanlng": {"lat": 50.3575453, "lng": 25.2077437}}, {"title": "Мур з брамою (мур.)", "address": "с.Пляшева", "lanlng": {"lat": 50.3575453, "lng": 25.2077437}}]}, {"address": "Сарненський район", "locations": [{"title": "Троїцька церква (дер.)", "address": "с.Доротичi", "lanlng": {"lat": 51.2828982, "lng": 26.6970732}}, {"title": "Церква Рiздва Богородицi (дер.)", "address": "с.Ремчицi", "lanlng": {"lat": 51.4067973, "lng": 26.5073578}}, {"title": "Землянi вали замку", "address": "смт.Степань", "lanlng": {"lat": 51.128333, "lng": 26.304167}}, {"title": "Троїцька церква (дер.)", "address": "смт.Степань", "lanlng": {"lat": 51.128333, "lng": 26.304167}}, {"title": "Дзвiниця Троїцької церкви (дер.)", "address": "смт.Степань", "lanlng": {"lat": 51.128333, "lng": 26.304167}}]}]},{"address": "Прикарпаття", "locations": [{"address": "м. Івано-Франківськ", "locations": [{"title": "Костел Пресвятої Діви Марії (мур.)", "address": "майдан А.Шептицького, 8", "lanlng": {"lat": 48.9238511, "lng": 24.7091321}}, {"title": "Колегія єзуїтів (мур.)", "address": "майдан А.Шептицького, 8", "lanlng": {"lat": 48.9238511, "lng": 24.7091321}}, {"title": "Вірменський костел (мур.)", "address": "вул.Вірменська, 5", "lanlng": {"lat": 48.9223922, "lng": 24.7113541}}, {"title": "Костел Св.Воскресіння (мур.)", "address": "майдан А.Шептицького, 8", "lanlng": {"lat": 48.9238511, "lng": 24.7091321}}, {"title": "Пивоварний завод (мур.)", "address": "вул.Виробнича, 47", "lanlng": {"lat": 48.922633, "lng": 24.711117}}]}, {"address": "Богородчанськи район", "locations": []}, {"address": "смт   Б о г о р о д ч а н и", "locations": [{"title": "Домініканський монастирї (мур.) :", "address": "вул.Шевченка, 61", "lanlng": {"lat": 48.916306, "lng": 24.7016356}}, {"title": "Костел (мур.)", "address": "вул.Шевченка, 61", "lanlng": {"lat": 48.916306, "lng": 24.7016356}}, {"title": "Палати духовенства келії (мур.)", "address": "вул.Шевченка, 61", "lanlng": {"lat": 48.916306, "lng": 24.7016356}}, {"title": "Мур з брамоюї (мур.)", "address": "вул.Шевченка, 61", "lanlng": {"lat": 48.916306, "lng": 24.7016356}}, {"title": "Монастир-скит ї (мур.):", "address": "с.Манява", "lanlng": {"lat": 48.6490636, "lng": 24.3699935}}, {"title": "Надбрамна башта (мур.)", "address": "с.Манява", "lanlng": {"lat": 48.6490636, "lng": 24.3699935}}, {"title": "Скарбницяї (мур.)", "address": "с.Манява", "lanlng": {"lat": 48.6490636, "lng": 24.3699935}}, {"title": "Оборонна башта і мури (мур.)", "address": "с.Манява", "lanlng": {"lat": 48.6490636, "lng": 24.3699935}}, {"title": "Трапезна (зміш.)", "address": "с.Манява", "lanlng": {"lat": 48.6490636, "lng": 24.3699935}}, {"title": "Підмурки Здвиженської церкви (зміш.)", "address": "с.Манява", "lanlng": {"lat": 48.6490636, "lng": 24.3699935}}]}, {"address": "Верховинський район", "locations": [{"title": "Миколаївська церква (дер.)", "address": "с.Барвінків", "lanlng": {"lat": 48.1174932, "lng": 25.0335099}}, {"title": "Покровська церква (дер.)", "address": "с.Білоберізка", "lanlng": {"lat": 48.1484382, "lng": 25.0590345}}, {"title": "Дзвіниця Покровської церкви (дер.)", "address": "с.Білоберізка", "lanlng": {"lat": 48.1484382, "lng": 25.0590345}}, {"title": "Церква Успіння Св.Ганни (дер.)", "address": "с.Бистрець", "lanlng": {"lat": 48.1235162, "lng": 24.6918988}}, {"title": "Дзвіниця церкви Успіння Св.Ганни (дер.)", "address": "с.Бистрець", "lanlng": {"lat": 48.1235162, "lng": 24.6918988}}, {"title": "Троїцька церква (дер.)", "address": "с.Верхній Ясенів", "lanlng": {"lat": 48.1662009, "lng": 24.9459851}}, {"title": "Дзвіниця Троїцької церкви (дер.)", "address": "с.Верхній Ясенів", "lanlng": {"lat": 48.1662009, "lng": 24.9459851}}, {"title": "Михайлівська церква (дер.)", "address": "с.Довгопілля", "lanlng": {"lat": 48.0741264, "lng": 24.9697728}}, {"title": "Церква Усікновіння глави Йоана Предтечі (дер.)", "address": "с.Зелена", "lanlng": {"lat": 48.0360554, "lng": 24.7599126}}, {"title": "Дзвіниця церкви Усікновіння глави Йоана Предтечі (дер.)", "address": "с.Зелена", "lanlng": {"lat": 48.0360554, "lng": 24.7599126}}, {"title": "Пертопавлівська церква (дер.)", "address": "с.Красноїлів", "lanlng": {"lat": 48.0615596, "lng": 24.8211382}}, {"title": "Дзвіниця Пертопав-лівської церквиї (мур.)", "address": "с.Красноїлів", "lanlng": {"lat": 48.0615596, "lng": 24.8211382}}, {"title": "Церква Різдва Богородиці (дер.)", "address": "с.Криворівня", "lanlng": {"lat": 48.1736874, "lng": 24.8963763}}, {"title": "Дзвіниця церкви Різдва Богородиці (дер.)", "address": "с.Криворівня", "lanlng": {"lat": 48.1736874, "lng": 24.8963763}}, {"title": "Вознесенська церква (дер.)", "address": "с.Устеріки", "lanlng": {"lat": 48.1287319, "lng": 24.9821853}}, {"title": "Михайлівська церква (дер.)", "address": "с.Черемошна", "lanlng": {"lat": 48.0428173, "lng": 24.9310599}}, {"title": "Дзвіниця Михайлівської церкви (дер.)", "address": "с.Черемошна", "lanlng": {"lat": 48.0428173, "lng": 24.9310599}}]}, {"address": "Галицький район", "locations": [{"title": "Замок (руїни) (мур.)", "address": "м.Галич", "lanlng": {"lat": 49.1237705, "lng": 24.7313165}}, {"title": "Церква Різдва Христова (мур.)", "address": "м.Галич", "lanlng": {"lat": 49.1237705, "lng": 24.7313165}}, {"title": "Костел кармелітів (мур.)", "address": "смт.Більшівці, вул.І.Франка, 7", "lanlng": {"lat": 49.1835908, "lng": 24.7462961}}, {"title": "Успенська церква (мур.)", "address": "с.Крилос", "lanlng": {"lat": 49.0838417, "lng": 24.6941842}}, {"title": "Василівська уаплиця (мур.)", "address": "с.Крилос", "lanlng": {"lat": 49.0838417, "lng": 24.6941842}}, {"title": "Церква Св.Пантелей-мона (мур.)", "address": "с.Шевченкове", "lanlng": {"lat": 49.13186710000001, "lng": 24.6928087}}, {"title": "Дзвіниця церкви Св.Пан-телеймона (мур.)", "address": "с.Шевченкове", "lanlng": {"lat": 49.13186710000001, "lng": 24.6928087}}]}, {"address": "Городенківський район", "locations": [{"title": "Костел Непорочного Зачаття Діви Марії (мур.)", "address": "м.Городенка", "lanlng": {"lat": 48.6723982, "lng": 25.4962545}}, {"title": "Келії костелу Непорочно-го Зачаття Діви Марії (мур.)", "address": "м.Городенка", "lanlng": {"lat": 48.6723982, "lng": 25.4962545}}, {"title": "Бернардинський монастир (мур.):", "address": "смт.Гвіздець", "lanlng": {"lat": 48.6892031, "lng": 25.4137146}}, {"title": "Костел (мур.)", "address": "смт.Гвіздець", "lanlng": {"lat": 48.6892031, "lng": 25.4137146}}, {"title": "Келії (мур.)", "address": "смт.Гвіздець", "lanlng": {"lat": 48.6892031, "lng": 25.4137146}}, {"title": "Надбрамна дзвіниця (мур.)", "address": "смт.Гвіздець", "lanlng": {"lat": 48.6892031, "lng": 25.4137146}}, {"title": "Домініканський костел (мур.)", "address": "смт. Чернелиця", "lanlng": {"lat": 48.8109783, "lng": 25.431687}}, {"title": "Замок (мур.)", "address": "смт.Чернелиця, вул.Лесі Українки, 1", "lanlng": {"lat": 48.8109783, "lng": 25.431687}}, {"title": "Замок (мур.)", "address": "с.Раковець", "lanlng": {"lat": 48.8027099, "lng": 25.3013061}}]}, {"address": "Долинський район", "locations": [{"title": "Слеварня (мур.)", "address": "м.Долина", "lanlng": {"lat": 48.9764573, "lng": 23.9892459}}]}, {"address": "Івано-Франківський район", "locations": [{"title": "Дзвіниця (дер.)", "address": "смт.Тисмениця", "lanlng": {"lat": 48.9001898, "lng": 24.8519696}}, {"title": "Церква Різдва Богородиці (дер.)", "address": "смт.Тисмениця", "lanlng": {"lat": 48.9001898, "lng": 24.8519696}}, {"title": "Дзвіниця церкви Різдва Богородиці (дер.)", "address": "смт.Тисмениця", "lanlng": {"lat": 48.9001898, "lng": 24.8519696}}]}, {"address": "Коломийський район", "locations": []}, {"address": "м. Коломия", "locations": [{"title": "Благовізенська церква (дер.)", "address": "вул.Карпатська, 2", "lanlng": {"lat": 48.528712, "lng": 25.0208747}}, {"title": "Дзвіниця Благовіщенської церкви (дер.)", "address": "вул.Карпатська,2", "lanlng": {"lat": 48.528712, "lng": 25.0208747}}]}, {"address": "Косівський район", "locations": []}, {"address": "м. Косів", "locations": [{"title": "Василівська церква (дер.)", "address": "", "lanlng": {"lat": 48.3135026, "lng": 25.082229}}, {"title": "Дзвіниця Василівської церкви (дер.)", "address": "", "lanlng": {"lat": 48.3135026, "lng": 25.082229}}, {"title": "Вознесенська церква (дер.)", "address": "с.Бабин", "lanlng": {"lat": 48.2788961, "lng": 25.036999}}, {"title": "Дзвіниця Вознесенської церкви (мур.)", "address": "с.Бабин", "lanlng": {"lat": 48.2788961, "lng": 25.036999}}, {"title": "Вознесенська церква (дер.)", "address": "с.Брустурів", "lanlng": {"lat": 48.2987162, "lng": 24.8766943}}, {"title": "Дзвіниця Вознесенської церкви (дер.)", "address": "с.Брустурів", "lanlng": {"lat": 48.2987162, "lng": 24.8766943}}, {"title": "Церква Св.Дмимтрія (дер.)", "address": "с.Великий Рожин", "lanlng": {"lat": 48.3135026, "lng": 25.082229}}, {"title": "дзвіниця церкви Св.Димитрія (дер.)", "address": "с.Великий Рожин", "lanlng": {"lat": 48.3135026, "lng": 25.082229}}, {"title": "Благовіщенська церква (дер.)", "address": "с.Вербовець", "lanlng": {"lat": 48.3135026, "lng": 25.082229}}, {"title": "Дзвіниця Благовіщенської церкви (дер.)", "address": "с.Вербовець", "lanlng": {"lat": 48.3135026, "lng": 25.082229}}, {"title": "Церква Св.Стефана (дер.)", "address": "с.Город", "lanlng": {"lat": 48.3018229, "lng": 25.0353754}}, {"title": "Дзвіниця церкви Св.Стефана (дер.)", "address": "с.Город", "lanlng": {"lat": 48.3018229, "lng": 25.0353754}}, {"title": "Петропавлівська церква (дер.)", "address": "с.Космач", "lanlng": {"lat": 48.3343908, "lng": 24.8195808}}, {"title": "Дзвіниця Петропавлів-ської церкви (дер.)", "address": "с.Космач", "lanlng": {"lat": 48.3343908, "lng": 24.8195808}}, {"title": "Вознесенська церква (дер.)", "address": "с.Люча", "lanlng": {"lat": 48.4011287, "lng": 24.8986922}}, {"title": "Дзвіниця Вознесенської церкви (дер.)", "address": "с.Люча", "lanlng": {"lat": 48.4011287, "lng": 24.8986922}}, {"title": "Михайлівська церква (дер.)", "address": "с.Лючки", "lanlng": {"lat": 48.4325077, "lng": 24.7446838}}, {"title": "Церква Різдва Йоана Предтечі (дер.)", "address": "с.Малий Рожин", "lanlng": {"lat": 48.2604355, "lng": 25.0765183}}, {"title": "Дзвіниця церкви Різдва Йоана Предтечі (дер.)", "address": "с.Малий Рожин", "lanlng": {"lat": 48.2604355, "lng": 25.0765183}}, {"title": "Здвиженська церква (дер.)", "address": "с.Микитинці", "lanlng": {"lat": 48.3952308, "lng": 25.0620587}}, {"title": "Дзвіниця Здвиженської церкви (дер.)", "address": "с.Микитинці", "lanlng": {"lat": 48.3952308, "lng": 25.0620587}}, {"title": "Церква Св.Варвари (Успенська) (дер.)", "address": "с.Пістинь", "lanlng": {"lat": 48.3135026, "lng": 25.082229}}, {"title": "Дзвіниця церкви Св.Варвари (мур.)", "address": "с.Пістинь", "lanlng": {"lat": 48.3135026, "lng": 25.082229}}, {"title": "Церква Собору Богородиці (дер.)", "address": "с.Прокурава", "lanlng": {"lat": 48.3345383, "lng": 24.8996399}}, {"title": "Дзвіниця церкви Собору Богородиці (дер.)", "address": "с.Прокурава", "lanlng": {"lat": 48.3345383, "lng": 24.8996399}}, {"title": "Церква Св.Василія (дер.)", "address": "с.Річка", "lanlng": {"lat": 48.3166733, "lng": 25.1088881}}, {"title": "Дзвіниця церкви Св.Васмлія (мур.)", "address": "с.Річка", "lanlng": {"lat": 48.3166733, "lng": 25.1088881}}, {"title": "Преображенська Церква (дер.)", "address": "с.Рожнів", "lanlng": {"lat": 48.3667546, "lng": 25.2298685}}, {"title": "Дзвіниця Преобра-женської церкви (мур.)", "address": "с.Рожнів", "lanlng": {"lat": 48.3667546, "lng": 25.2298685}}, {"title": "Богородиціька церква (дер.)", "address": "с.Рожнів", "lanlng": {"lat": 48.3667546, "lng": 25.2298685}}, {"title": "Дзвіниця Богородицької церкви (дер.)", "address": "с.Рожнів", "lanlng": {"lat": 48.3667546, "lng": 25.2298685}}, {"title": "Церква Якима і Ганни (дер.)", "address": "с.Смодна", "lanlng": {"lat": 48.31826299999999, "lng": 25.1416277}}, {"title": "Дзвіниця церкви Якима і Ганни (дер.)", "address": "с.Смодна", "lanlng": {"lat": 48.31826299999999, "lng": 25.1416277}}, {"title": "Пертопавлівська церква (дер.)", "address": "с.Снідавка", "lanlng": {"lat": 48.3135026, "lng": 25.082229}}, {"title": "Дзвіниця Петропавлів-ської церкви (дер.)", "address": "с.Снідавка", "lanlng": {"lat": 48.3135026, "lng": 25.082229}}, {"title": "Церква Зішестя Св.Духа (дер.)", "address": "с.Соколівка", "lanlng": {"lat": 48.2935649, "lng": 25.0023289}}, {"title": "Дзвіниця церкви Зішестя Св.Духа (мур.)", "address": "с.Соколівка", "lanlng": {"lat": 48.2935649, "lng": 25.0023289}}, {"title": "Спаська церква (дер.)", "address": "с.Старі Кути", "lanlng": {"lat": 48.2824698, "lng": 25.1584914}}, {"title": "Дзвіниця Спаської церки (дер.)", "address": "с.Старі Кути", "lanlng": {"lat": 48.2824698, "lng": 25.1584914}}, {"title": "Церква Св.Йоана (дер.)", "address": "с.Черганівка", "lanlng": {"lat": 48.3003636, "lng": 25.1500635}}, {"title": "Дзвіниця церкви Св.Йоана (мур.)", "address": "с.Черганівка", "lanlng": {"lat": 48.3003636, "lng": 25.1500635}}, {"title": "Церква Св.Параскеви (дер.)", "address": "с.Шешори", "lanlng": {"lat": 48.3135026, "lng": 25.082229}}, {"title": "Дзвіниця церкви Св.Параскеви (дер.)", "address": "с.Шешори", "lanlng": {"lat": 48.3135026, "lng": 25.082229}}, {"title": "Церква Різдва Богородиц (дер.)", "address": "с.Яворів", "lanlng": {"lat": 48.3135026, "lng": 25.082229}}, {"title": "Дзвіниця церкви Різдва Богородиці (дер.)", "address": "с.Яворів", "lanlng": {"lat": 48.3135026, "lng": 25.082229}}]}, {"address": "Надвірнянський район", "locations": [{"title": "Ганнозачатіївська церква (верхня) (дер.)", "address": "с.Білі Ослави", "lanlng": {"lat": 48.4843454, "lng": 24.6980542}}, {"title": "Дзвіниця Ганнозачатіїв-ської церкви (дер.)", "address": "с.Білі Ослави", "lanlng": {"lat": 48.4843454, "lng": 24.6980542}}, {"title": "Церква Св.Димитрія (нижня) (дер.)", "address": "с.Білі Ослави", "lanlng": {"lat": 48.4843454, "lng": 24.6980542}}, {"title": "Дзвіниця церкви Св.Димитрія (дер.)", "address": "с.Білі Ослави", "lanlng": {"lat": 48.4843454, "lng": 24.6980542}}, {"title": "Церква Св.Юрія (дер.)", "address": "с.Бистриця", "lanlng": {"lat": 48.4703688, "lng": 24.2784263}}, {"title": "Дзвіниця церкви Св.Юрія (дер.)", "address": "с.Бистриця", "lanlng": {"lat": 48.4703688, "lng": 24.2784263}}, {"title": "Успенська церква (дер.)", "address": "с.Гвізд", "lanlng": {"lat": 48.6803871, "lng": 24.544033}}, {"title": "Дзвіниця Успенської церкви (дер.)", "address": "с.Гвізд", "lanlng": {"lat": 48.6803871, "lng": 24.544033}}, {"title": "Церква Різдва Богородиці (дер.)", "address": "смт. Ділятин", "lanlng": {"lat": 48.5328777, "lng": 24.6250666}}, {"title": "Дзвіниця церкви Різдва Богородиці (дер.)", "address": "смт. Ділятин", "lanlng": {"lat": 48.5328777, "lng": 24.6250666}}, {"title": "Церква Йоана Хрестителя (дер.)", "address": "с.Назавизів", "lanlng": {"lat": 48.670716, "lng": 24.5984425}}, {"title": "Дзвіниця церкви Йоана Хрестителя (дер.)", "address": "с.Назавизів", "lanlng": {"lat": 48.670716, "lng": 24.5984425}}, {"title": "Замок (мур.)", "address": "с.Пнів", "lanlng": {"lat": 48.6144697, "lng": 24.5234182}}]}, {"address": "Рогатинський район", "locations": [{"title": "Миколаївська церква (дер.)", "address": "м.Рогатин (Бабинці Горішні)", "lanlng": {"lat": 49.40993659999999, "lng": 24.6106017}}, {"title": "Дзвіниця Миколаївської церкви (дер.)", "address": "м.Рогатин (Бабинці Горішні)", "lanlng": {"lat": 49.40993659999999, "lng": 24.6106017}}, {"title": "Церква Різдва Богородиці (мур.)", "address": "м.Рогатин", "lanlng": {"lat": 49.40993659999999, "lng": 24.6106017}}, {"title": "Мури з брамами церкви Різдва Богородиці (мур.)", "address": "м.Рогатин", "lanlng": {"lat": 49.40993659999999, "lng": 24.6106017}}, {"title": "Святодухівська церква (дер.)", "address": "м.Рогатин", "lanlng": {"lat": 49.40993659999999, "lng": 24.6106017}}, {"title": "Миколаївський костел (мур.)", "address": "м.Рогатин", "lanlng": {"lat": 49.40993659999999, "lng": 24.6106017}}, {"title": "Здвиженська церква (дер.)", "address": "с.Загір'я", "lanlng": {"lat": 49.3793443, "lng": 24.4769891}}, {"title": "Церква Св.Димитрія (зміш.)", "address": "с.Заланів", "lanlng": {"lat": 49.464112, "lng": 24.5412382}}, {"title": "Дзвіниця церкви Св.Димитрія (дер.)", "address": "с.Заланів", "lanlng": {"lat": 49.464112, "lng": 24.5412382}}, {"title": "Миколаївська церква (дер.)", "address": "с.Калинівка (Уїзд)", "lanlng": {"lat": 49.3356407, "lng": 24.7149002}}, {"title": "Дзвіниця Миколаївської церкви (дер.)", "address": "с.Калинівка (Уїзд)", "lanlng": {"lat": 49.3356407, "lng": 24.7149002}}, {"title": "Миколаївська церква (дер.)", "address": "с.Кліщівна", "lanlng": {"lat": 49.4871011, "lng": 24.5980821}}, {"title": "Садиба (мур.) :", "address": "с.Приозерне", "lanlng": {"lat": 49.4156081, "lng": 24.4717438}}, {"title": "Палац (мур.)", "address": "с.Приозерне", "lanlng": {"lat": 49.4156081, "lng": 24.4717438}}, {"title": "Брама (мур.)", "address": "с.Приозерне", "lanlng": {"lat": 49.4156081, "lng": 24.4717438}}, {"title": "Шпихлір (мур.)", "address": "с.Приозерне", "lanlng": {"lat": 49.4156081, "lng": 24.4717438}}, {"title": "Стайня (мур.)", "address": "с.Приозерне", "lanlng": {"lat": 49.4156081, "lng": 24.4717438}}, {"title": "Парк", "address": "с.Приозерне", "lanlng": {"lat": 49.4156081, "lng": 24.4717438}}, {"title": "Церква Св.Василія (дер.)", "address": "с.Черче", "lanlng": {"lat": 49.4273682, "lng": 24.5514001}}, {"title": "Миколаївська церква (мур.)", "address": "с.Чесники", "lanlng": {"lat": 49.390071, "lng": 24.7278969}}]}, {"address": "Рожнятівський район", "locations": [{"title": "Доменна піч (мур.)", "address": "Урочище Ангелів (Осмолодська с/р)", "lanlng": {"lat": 48.8526332, "lng": 24.1386159}}, {"title": "Миколаївська церква (дер.)", "address": "с.Сливки", "lanlng": {"lat": 48.7781585, "lng": 24.2036851}}, {"title": "Дзвіниця Миколаївської церкви (дер.)", "address": "с.Сливки", "lanlng": {"lat": 48.7781585, "lng": 24.2036851}}]}, {"address": "Снятівський район", "locations": [{"title": "Михайлівська церква (дер.)", "address": "с.Устя", "lanlng": {"lat": 48.46853170000001, "lng": 25.4822715}}, {"title": "Дзвіниця Михайлівсько церкви (дер.)", "address": "с.Устя", "lanlng": {"lat": 48.46853170000001, "lng": 25.4822715}}, {"title": "Успенська церква (дер.)", "address": "с.Хлібичин", "lanlng": {"lat": 48.4712381, "lng": 25.2611887}}, {"title": "Дзвіниця Успенської церкви (дер.)", "address": "с.Хлібичин", "lanlng": {"lat": 48.4712381, "lng": 25.2611887}}]}, {"address": "м. Яремча", "locations": [{"title": "Михайлівська церква (дер.)", "address": "передмістя Дора, вул.Галана, 32", "lanlng": {"lat": 48.481557, "lng": 24.5819174}}, {"title": "Церква Йоана Милостивого (дер.)", "address": "вул.Ковпака, 2", "lanlng": {"lat": 48.4537594, "lng": 24.5538542}}, {"title": "Дзвіниця церкви Йоана Милостивого (дер.)", "address": "вул.Ковпака, 2", "lanlng": {"lat": 48.4537594, "lng": 24.5538542}}]}, {"address": "Я р е м ч а н с ь к а    м і с ь к р а д а", "locations": [{"title": "Церква Різдва Богородиці (дер.)", "address": "смт.Ворохта, вул.Довбуша, 1", "lanlng": {"lat": 48.2834458, "lng": 24.5670568}}, {"title": "Троцька церква (дер.)", "address": "с.Микуличин", "lanlng": {"lat": 48.40995419999999, "lng": 24.6166487}}, {"title": "Дзвіниця Троїцької церкви (дер.)", "address": "с.Микуличин", "lanlng": {"lat": 48.40995419999999, "lng": 24.6166487}}]}]},{"address": "Львівщина", "locations": [null]},{"address": "Кіровоградщина", "locations": [{"address": "м. Кіровоград", "locations": [{"title": "Покровська церква (мур.)", "address": "вул.Жрунзе", "lanlng": {"lat": 48.50793300000001, "lng": 32.262317}}, {"title": "Єлизаветинська фортеця (зміш.):", "address": "Фортеця, 21", "lanlng": {"lat": 48.4981173, "lng": 32.2544237}}, {"title": "Казарми Єлизаветинської фортеці", "address": "Фортеця, 21", "lanlng": {"lat": 48.4981173, "lng": 32.2544237}}, {"title": "Лікувальний корпус (зміш.)", "address": "Фортеця, 21", "lanlng": {"lat": 48.4981173, "lng": 32.2544237}}, {"title": "Канцелярія і аптека (зміш.)", "address": "Фортеця, 21", "lanlng": {"lat": 48.4981173, "lng": 32.2544237}}, {"title": "Житловий будинок (зміш.)", "address": "Фортеця, 21", "lanlng": {"lat": 48.4981173, "lng": 32.2544237}}, {"title": "Кухня (зміш.)", "address": "Фортеця, 21", "lanlng": {"lat": 48.4981173, "lng": 32.2544237}}, {"title": "Земляні укріалення Єлизаветинської фортеці", "address": "Фортеця, 21", "lanlng": {"lat": 48.4981173, "lng": 32.2544237}}, {"title": "Палацовий корпус (мур.)", "address": "вул.Леніна, 2", "lanlng": {"lat": 48.50793300000001, "lng": 32.262317}}, {"title": "Військове училище (мур.)", "address": "вул.Орджонікідзе, 9", "lanlng": {"lat": 48.5149142, "lng": 32.2589931}}, {"title": "Манеж (мур.)", "address": "вул.Орджонікідзе, 11", "lanlng": {"lat": 48.5148634, "lng": 32.2589401}}, {"title": "Штабний корпус (мур.)", "address": "вул.Орджонікідзе, 13", "lanlng": {"lat": 48.5147268, "lng": 32.2590744}}, {"title": "Житловий будинок (зміш.)", "address": "вул.Володарського, 61", "lanlng": {"lat": 48.506329, "lng": 32.2691589}}, {"title": "Грецька церква (Пресвя-тої Володимирівської Богородиці) (мур.)", "address": "вул.К.Маркса", "lanlng": {"lat": 48.511903, "lng": 32.2686573}}, {"title": "Дзвіниця з будинком настоятеля Грецької церкви (мур.)", "address": "вул.К.Маркса", "lanlng": {"lat": 48.511903, "lng": 32.2686573}}]}, {"address": "Новомиргородський район", "locations": [{"title": "Іллінська церква (мур.)", "address": "м.Новомиргород", "lanlng": {"lat": 48.7907203, "lng": 31.6582633}}]}, {"address": "Олександрівський район", "locations": [{"title": "Церква-усипальня М.М.Раєвського (мур.)", "address": "с.Розумівка", "lanlng": {"lat": 48.8315715, "lng": 32.1508422}}]}]},{"address": "Одещина", "locations": [{"address": "м. Одеса", "locations": [{"title": "Потьомкiнськi сходи (мур.)", "address": "бульв.Приморський", "lanlng": {"lat": 46.4880795, "lng": 30.7410718}}, {"title": "Пам'ятник Рiшельє (мур.)", "address": "бульв.Приморський", "lanlng": {"lat": 46.4880795, "lng": 30.7410718}}, {"title": "Будинок Присутствених мiсць (мур.)", "address": "бульв.Приморський, 7", "lanlng": {"lat": 46.4879883, "lng": 30.740467}}, {"title": "Готель \"Петербурзький\" (мур.)", "address": "бульв.Приморський, 8", "lanlng": {"lat": 46.4876514, "lng": 30.7407653}}, {"title": "Палац Р.Шидловського", "address": "бульв.Приморський, 9", "lanlng": {"lat": 46.48706199999999, "lng": 30.7410076}}, {"title": "Садиба Воронцова (мур.)", "address": "пров.Воронцовський, 2", "lanlng": {"lat": 46.4895435, "lng": 30.7383663}}, {"title": "Воронцовський палац", "address": "пров.Воронцовський, 2", "lanlng": {"lat": 46.4895435, "lng": 30.7383663}}, {"title": "Стайня (мур.)", "address": "пров.Воронцовський, 2", "lanlng": {"lat": 46.4895435, "lng": 30.7383663}}, {"title": "Бельведер (мур.)", "address": "пров.Воронцовський, 2", "lanlng": {"lat": 46.4895435, "lng": 30.7383663}}, {"title": "Стара бiржа (мур.)", "address": "пл.Думська, 1", "lanlng": {"lat": 46.4857497, "lng": 30.7438616}}, {"title": "Будинок Лiдерса (мур.)", "address": "вул.Ланжеронiвська, 3", "lanlng": {"lat": 46.4848264, "lng": 30.7430196}}, {"title": "Театр опери та балету", "address": "вул.Ланжеронiвська, 8", "lanlng": {"lat": 46.4850806, "lng": 30.7405017}}, {"title": "Лiкарня (мур.)", "address": "вул.Пастера, 5-7", "lanlng": {"lat": 46.4944296, "lng": 30.7226726}}, {"title": "Палац адмiрала Абази (чоловiча гiмназiя) (мур.)", "address": "вул.Пушкiнська, 9", "lanlng": {"lat": 46.48263, "lng": 30.7431791}}, {"title": "Нова бiржа (мур.)", "address": "вул.Пушкiнська, 17", "lanlng": {"lat": 46.4803046, "lng": 30.7427161}}, {"title": "Будинок Вучинi (мур.)", "address": "вул.Пушкiнська, 19", "lanlng": {"lat": 46.4800902, "lng": 30.7428121}}, {"title": "Палац Потоцького (мур.)", "address": "вул.Короленка, 5-а", "lanlng": {"lat": 46.4933235, "lng": 30.728631}}, {"title": "Комплекс будинку вчених (мур.)", "address": "Сабанєєв мiст, 4", "lanlng": {"lat": 46.4875912, "lng": 30.7395743}}, {"title": "Палац Толстого (мур.)", "address": "Сабанєєв мiст, 4", "lanlng": {"lat": 46.4875912, "lng": 30.7395743}}, {"title": "Картинна галерея (мур.)", "address": "Сабанєєв мiст, 4", "lanlng": {"lat": 46.4875912, "lng": 30.7395743}}, {"title": "Сабанськi казарми (мур.)", "address": "вул.Канатна, 23", "lanlng": {"lat": 46.4802075, "lng": 30.7485482}}, {"title": "Особняк Камо (мур.)", "address": "вул.Тираспільська, 4", "lanlng": {"lat": 46.482526, "lng": 30.7233095}}, {"title": "Аркада карантину з баштою (мур.)", "address": "парк iм.Шевченка", "lanlng": {"lat": 46.4785981, "lng": 30.7557505}}, {"title": "Склади (мур.)", "address": "узвiз Польський, 2", "lanlng": {"lat": 46.4847629, "lng": 30.7460169}}, {"title": "АнсамбльПриморського бульвару (мур.)", "address": "бульв.Приморський", "lanlng": {"lat": 46.4880795, "lng": 30.7410718}}, {"title": "Будинок Потоцького мур.)", "address": "бульв.Приморський, 1", "lanlng": {"lat": 46.4893361, "lng": 30.7392737}}, {"title": "Будинок Наришкiна(мур.)", "address": "бульв.Приморський, 2", "lanlng": {"lat": 46.48909099999999, "lng": 30.7395415}}, {"title": "Будинок Маринi (мур.)", "address": "бульв.Приморський, 3", "lanlng": {"lat": 46.4888997, "lng": 30.7395585}}, {"title": "Будинок Серато (мур.)", "address": "бульв.Приморський, 4", "lanlng": {"lat": 46.4887234, "lng": 30.7399432}}, {"title": "Прибутковий будинок Лерхе (мур.)", "address": "бульв.Приморський, 5", "lanlng": {"lat": 46.488509, "lng": 30.7401076}}, {"title": "Будинок Зонтага (мур.)", "address": "бульв.Приморський, 6", "lanlng": {"lat": 46.48840939999999, "lng": 30.7402339}}, {"title": "Будинок Родоконакi(мур.)", "address": "бульв.Приморський,10", "lanlng": {"lat": 46.4871303, "lng": 30.7416836}}, {"title": "Готель \"Лондонський\"", "address": "бульв.Приморський,11", "lanlng": {"lat": 46.4868852, "lng": 30.7419515}}, {"title": "Будинок Золоторьова (мур.)", "address": "бульв.Приморський,12", "lanlng": {"lat": 46.4866401, "lng": 30.7422193}}, {"title": "Будинок Маюрова (мур.)", "address": "бульв.Приморський,13", "lanlng": {"lat": 46.48639499999999, "lng": 30.742487}}, {"title": "Будинок Магнера (мур.)", "address": "бульв.Приморський,14", "lanlng": {"lat": 46.48614999999999, "lng": 30.7427548}}, {"title": "Будинок Фука (мур.)", "address": "бульв.Приморський,15", "lanlng": {"lat": 46.4862984, "lng": 30.7430384}}, {"title": "Грецька церква Св.Трiйцi (мур.)", "address": "вул.Катерининська, 55", "lanlng": {"lat": 46.4759973, "lng": 30.7378495}}, {"title": "Палац Гагарiна (мур.)", "address": "вул.Ланжеронiвська, 2", "lanlng": {"lat": 46.4851077, "lng": 30.7445916}}, {"title": "Будинок археологічного музею (мур.)", "address": "вул.Ланжеронiвська, 4", "lanlng": {"lat": 46.4851465, "lng": 30.7439732}}, {"title": "Будинок Англiйського клубу (мур.)", "address": "вул.Ланжеронiвська, 6", "lanlng": {"lat": 46.485311, "lng": 30.7429217}}, {"title": "Лютеранська церква Св.Павла (мур.)", "address": "вул.Новосельського, 8", "lanlng": {"lat": 46.4927857, "lng": 30.7201916}}, {"title": "Мiська публiчна бібліотека", "address": "вул.Пастера, 13", "lanlng": {"lat": 46.4910742, "lng": 30.72598399999999}}, {"title": "Будинок Боффо (мур.)", "address": "пров.Чайковського, 8", "lanlng": {"lat": 46.4859977, "lng": 30.7418738}}]}, {"address": "Білгород-Дністровський район", "locations": []}, {"address": "м. Білгород-Дністровський", "locations": [{"title": "Аккерманська фортеця (мур.)", "address": "", "lanlng": {"lat": 46.1854516, "lng": 30.3414908}}, {"title": "Генуезький замок (мур.)", "address": "", "lanlng": {"lat": 46.1854516, "lng": 30.3414908}}, {"title": "Брами, башти та мури", "address": "", "lanlng": {"lat": 46.1854516, "lng": 30.3414908}}, {"title": "Вiрменська церква Богородицi (мур.)", "address": "", "lanlng": {"lat": 46.1854516, "lng": 30.3414908}}, {"title": "Грецька церква (мур.)", "address": "", "lanlng": {"lat": 46.1854516, "lng": 30.3414908}}, {"title": "Пiдземна церква Iоанна Сучавського (мур.)", "address": "", "lanlng": {"lat": 46.1854516, "lng": 30.3414908}}, {"title": "Михайлiвська церква та дзвiниця (мур.)", "address": "с.Крутоярiвка", "lanlng": {"lat": 46.35452189999999, "lng": 29.8206774}}]}, {"address": "Біляївський район", "locations": [{"title": "Вознесенська церква (мур.)", "address": "с.Нерубайське", "lanlng": {"lat": 46.5465878, "lng": 30.6294631}}, {"title": "Церква Рiздва (мур.)", "address": "с.Усатове", "lanlng": {"lat": 46.5328668, "lng": 30.6579315}}]}, {"address": "Болградський район", "locations": []}, {"address": "м. Болград", "locations": [{"title": "Мавзолей Iнзова (мур.)", "address": "", "lanlng": {"lat": 45.6838431, "lng": 28.6143107}}, {"title": "Преображенський собор (мур.)", "address": "", "lanlng": {"lat": 45.6838431, "lng": 28.6143107}}, {"title": "Миколаївська церква (мур.)", "address": "", "lanlng": {"lat": 45.6838431, "lng": 28.6143107}}]}, {"address": "Ізмаїльський район", "locations": []}, {"address": "м. Ізмаїл", "locations": [{"title": "Мала мечеть (мур.)", "address": "фортеця", "lanlng": {"lat": 45.3392706, "lng": 28.8069436}}, {"title": "Церква Рiздва (мур.)", "address": "вул.Кутузова, 24", "lanlng": {"lat": 45.3359455, "lng": 28.8341097}}, {"title": "Покровський собор (мур.)", "address": "просп.Суворова", "lanlng": {"lat": 45.337436, "lng": 28.83456159999999}}, {"title": "Свято-Миколаївська церква (мур.)", "address": "вул.Дзержинсько-го,124", "lanlng": {"lat": 45.3349504, "lng": 28.8336092}}, {"title": "Успенська церква (мур.)", "address": "фортеця", "lanlng": {"lat": 45.3392706, "lng": 28.8069436}}, {"title": "Миколаївська церква (мур.)", "address": "фортеця", "lanlng": {"lat": 45.3392706, "lng": 28.8069436}}, {"title": "Успенська церква (мур.)", "address": "с.Кирнички", "lanlng": {"lat": 45.7089256, "lng": 29.0654855}}, {"title": "Введенська церква (мур.)", "address": "с.Нова Некрасiвка", "lanlng": {"lat": 45.3552694, "lng": 28.6921908}}, {"title": "Дзвiниця церкви Iоанна Богослова (мур.)", "address": "с.Нова Некрасiвка", "lanlng": {"lat": 45.3552694, "lng": 28.6921908}}]}, {"address": "Кілійський район", "locations": [{"title": "Миколаївська церква та дзвiниця (мур.)", "address": "м.Кілія", "lanlng": {"lat": 45.4650742, "lng": 29.2480308}}]}, {"address": "Комінтернівський район", "locations": [{"title": "Садиба (мур.)", "address": "смт.Петрiвка", "lanlng": {"lat": 46.9716211, "lng": 30.9565402}}, {"title": "Палац (мур.)", "address": "смт.Петрiвка", "lanlng": {"lat": 46.9716211, "lng": 30.9565402}}, {"title": "Господарський флігель (мур.)", "address": "смт.Петрiвка", "lanlng": {"lat": 46.9716211, "lng": 30.9565402}}, {"title": "Парк", "address": "смт.Петрiвка", "lanlng": {"lat": 46.9716211, "lng": 30.9565402}}]}, {"address": "Котовський район", "locations": [{"title": "Михайлiвська церква (мур.)", "address": "с.Липецьке", "lanlng": {"lat": 47.7362152, "lng": 29.6892538}}, {"title": "Дзвiниця Михайлівської церкви (мур.)", "address": "с.Липецьке", "lanlng": {"lat": 47.7362152, "lng": 29.6892538}}]}]},{"address": "Полтавщина", "locations": [{"address": "м. Полтава", "locations": [{"title": "Ансамбль Круглої площi", "address": "", "lanlng": {"lat": 49.58826699999999, "lng": 34.5514169}}, {"title": "Пам'ятник \"Слави\" (мур.,мет.)", "address": "Жовтневий парк", "lanlng": {"lat": 49.5898513, "lng": 34.5509887}}, {"title": "Поштамт (мур.)", "address": "вул.Жовтнева, 35", "lanlng": {"lat": 49.5887499, "lng": 34.5490458}}, {"title": "Присутственi мiсця (мур.)", "address": "вул.Жовтнева, 36", "lanlng": {"lat": 49.5893587, "lng": 34.5536343}}, {"title": "Будинок генерал-губерна- тора (мур.)", "address": "вул.Жовтнева, 37", "lanlng": {"lat": 49.58984299999999, "lng": 34.547186}}, {"title": "Кадетський корпус (мур.)", "address": "вул.Жовтнева, 42", "lanlng": {"lat": 49.5909652, "lng": 34.5501039}}, {"title": "Дворянське зiбрання (мур.)", "address": "вул.Жовтнева, 31", "lanlng": {"lat": 49.5881431, "lng": 34.5524261}}, {"title": "Старогубернаторський будинок (мур.)", "address": "вул.Жовтнева, 38", "lanlng": {"lat": 49.5905814, "lng": 34.5532267}}, {"title": "Вiцегубернаторський будинок (мур.)", "address": "вул.Жовтнева, 40", "lanlng": {"lat": 49.59343699999999, "lng": 34.551847}}, {"title": "Спаська церква (зміш.)", "address": "вул.Жовтнева, 10", "lanlng": {"lat": 49.5840137, "lng": 34.5638198}}, {"title": "Богадiльня (мур.)", "address": "вул.Шевченка, 23", "lanlng": {"lat": 49.5813092, "lng": 34.5505053}}, {"title": "Пожежна команда (мур.)", "address": "Першотравневий проспект, 16", "lanlng": {"lat": 49.5796113, "lng": 34.5603153}}, {"title": "Iнститут шляхетних дiвчат (мур.)", "address": "Першотравневий проспект, 24", "lanlng": {"lat": 49.5742936, "lng": 34.5678501}}, {"title": "Дзвiниця Успенського собору (мур.)", "address": "Соборна площа, 3", "lanlng": {"lat": 49.5816971, "lng": 34.5683657}}, {"title": "Здвиженський монастир", "address": "вул.Свердлова, 3", "lanlng": {"lat": 49.5985309, "lng": 34.5761548}}, {"title": "Здвиженський собор (мур.)", "address": "вул.Свердлова, 3", "lanlng": {"lat": 49.5985309, "lng": 34.5761548}}, {"title": "Дзвiниця (мур.)", "address": "вул.Свердлова, 3", "lanlng": {"lat": 49.5985309, "lng": 34.5761548}}, {"title": "Братський корпус (зміш.)", "address": "вул.Свердлова, 3", "lanlng": {"lat": 49.5985309, "lng": 34.5761548}}, {"title": "Будинок настоятеля(мур.)", "address": "вул.Свердлова, 3", "lanlng": {"lat": 49.5985309, "lng": 34.5761548}}, {"title": "Трапезна церква (мур.)", "address": "вул.Свердлова, 3", "lanlng": {"lat": 49.5985309, "lng": 34.5761548}}, {"title": "Господарчий корпус (мур.)", "address": "вул.Свердлова, 3", "lanlng": {"lat": 49.5985309, "lng": 34.5761548}}, {"title": "Будинок Таранушенка (мур.)", "address": "вул.Жовтнева, 14", "lanlng": {"lat": 49.58457139999999, "lng": 34.5624002}}, {"title": "Росiйський селянський банк (мур.)", "address": "вул.Жовтнева, 39", "lanlng": {"lat": 49.5910151, "lng": 34.5471659}}, {"title": "Житловий будинок (мур.)", "address": "Першотравневий проспект, 18", "lanlng": {"lat": 49.5789063, "lng": 34.5607945}}, {"title": "Будинок губернського земства (мур.)", "address": "пл.Ленiна, 2", "lanlng": {"lat": 49.5436103, "lng": 34.5030311}}]}, {"address": "Гадяцький район", "locations": [{"title": "Всiхсвятська церква(мур.)", "address": "м.Гадяч", "lanlng": {"lat": 50.3678365, "lng": 33.9796724}}, {"title": "Садибний будинок (мур.)", "address": "с.Бобрик", "lanlng": {"lat": 50.4175526, "lng": 34.2429675}}, {"title": "Миколаївська церква (мур.)", "address": "с.Веприк", "lanlng": {"lat": 50.36956199999999, "lng": 34.1765412}}, {"title": "Успенська церква (мур.)", "address": "с.Веприк", "lanlng": {"lat": 50.36956199999999, "lng": 34.1765412}}, {"title": "Покровська церква (мур.)", "address": "с.Плiшивець", "lanlng": {"lat": 50.44403579999999, "lng": 34.2030982}}]}, {"address": "Диканьський район", "locations": [{"title": "Трiумфальна арка (мур.)", "address": "смт.Диканька, автотра- са Полтава-Гадяч", "lanlng": {"lat": 49.823894, "lng": 34.5260962}}, {"title": "Миколаївська церква (мур.)", "address": "смт.Диканька", "lanlng": {"lat": 49.823894, "lng": 34.5260962}}, {"title": "Дзвiниця Миколаївської церкви (мур.)", "address": "смт.Диканька", "lanlng": {"lat": 49.823894, "lng": 34.5260962}}, {"title": "Троїцька церква (мур.)", "address": "смт.Диканька", "lanlng": {"lat": 49.823894, "lng": 34.5260962}}]}, {"address": "Карлівський район", "locations": [{"title": "Благовiщенська церква (мур.)", "address": "с.Федорiвка", "lanlng": {"lat": 49.37902589999999, "lng": 35.1128921}}]}, {"address": "Котелевський район", "locations": [{"title": "Троїцька церква (мур.)", "address": "смт.Котельва", "lanlng": {"lat": 50.0688235, "lng": 34.7645338}}]}, {"address": "Кременчуцький район", "locations": []}, {"address": "м. Кременчук", "locations": [{"title": "Будинок для спостере-ження за рухом по Дніпру (мур.)", "address": "вул.Штабна", "lanlng": {"lat": 49.06536999999999, "lng": 33.3980614}}]}, {"address": "Лубенський район", "locations": [{"title": "Успенська церква (руїни) (мур.)", "address": "с.Лютенька", "lanlng": {"lat": 50.2096406, "lng": 34.0349327}}, {"title": "Спасо-Преображенський Мгарський монастир", "address": "с.Мгар", "lanlng": {"lat": 50.0296785, "lng": 33.0556763}}, {"title": "Спасо-Преображенський собор (мур.)", "address": "с.Мгар", "lanlng": {"lat": 50.0296785, "lng": 33.0556763}}, {"title": "Дзвiниця (мур.)", "address": "с.Мгар", "lanlng": {"lat": 50.0296785, "lng": 33.0556763}}, {"title": "Будинок настоятеля(мур.)", "address": "с.Мгар", "lanlng": {"lat": 50.0296785, "lng": 33.0556763}}, {"title": "Готель (мур.)", "address": "с.Мгар", "lanlng": {"lat": 50.0296785, "lng": 33.0556763}}, {"title": "Благовiщенська (тепла) церква (мур.)", "address": "с.Мгар", "lanlng": {"lat": 50.0296785, "lng": 33.0556763}}, {"title": "Успенська церква (дер.)", "address": "с.Пiски", "lanlng": {"lat": 50.0177353, "lng": 33.0884367}}, {"title": "Воскресенська церква (мур.)", "address": "с.Снiтин", "lanlng": {"lat": 50.1118514, "lng": 33.2441569}}]}, {"address": "Миргородський район", "locations": [{"title": "Спасо-Преображенська церква (мур.)", "address": "с.Великi Сорочинцi", "lanlng": {"lat": 50.0198084, "lng": 33.9416726}}]}, {"address": "Пирятинський район", "locations": []}, {"address": "м. Пирятин", "locations": [{"title": "Собор Рiздва Богородицi (мур.)", "address": "пл.Борцiв Революцiї", "lanlng": {"lat": 50.2394849, "lng": 32.5070927}}, {"title": "Садиба (мур.)", "address": "с.Березова Рудка", "lanlng": {"lat": 50.2394849, "lng": 32.5070927}}, {"title": "Палац (мур.)", "address": "с.Березова Рудка", "lanlng": {"lat": 50.2394849, "lng": 32.5070927}}, {"title": "Флiгель (мур.)", "address": "с.Березова Рудка", "lanlng": {"lat": 50.2394849, "lng": 32.5070927}}, {"title": "Флiгель (мур.)", "address": "с.Березова Рудка", "lanlng": {"lat": 50.2394849, "lng": 32.5070927}}, {"title": "Огорожа з альтанкою (мур.)", "address": "с.Березова Рудка", "lanlng": {"lat": 50.2394849, "lng": 32.5070927}}, {"title": "Парк", "address": "с.Березова Рудка", "lanlng": {"lat": 50.2394849, "lng": 32.5070927}}]}, {"address": "Полтавський район", "locations": [{"title": "Садиба (мур.)", "address": "с.Крутий Берег (в межах Полтави)", "lanlng": {"lat": 49.6118817, "lng": 34.60844240000001}}, {"title": "Садибний будинок (мур.)", "address": "с.Крутий Берег (в межах Полтави)", "lanlng": {"lat": 49.6118817, "lng": 34.60844240000001}}, {"title": "Службовий флiгель (мур.)", "address": "с.Крутий Берег (в межах Полтави)", "lanlng": {"lat": 49.6118817, "lng": 34.60844240000001}}]}, {"address": "Хорольський район", "locations": [{"title": "Церква Рiздва (мур.)", "address": "с.Вергуни", "lanlng": {"lat": 49.8614325, "lng": 33.340977}}, {"title": "Садибний будинок (мур.)", "address": "с.Вишняки", "lanlng": {"lat": 49.7597269, "lng": 33.3177034}}, {"title": "Троїцька церква (мур.)", "address": "с.Вишняки", "lanlng": {"lat": 49.7597269, "lng": 33.3177034}}]}, {"address": "Чорнухинський район", "locations": [{"title": "Будинок провіантського складу (мур.)", "address": "с.Вороньки", "lanlng": {"lat": 50.21479, "lng": 33.0315401}}]}, {"address": "Шишацький район", "locations": [{"title": "Комплекс садиби М.В.Гоголя (мур.)", "address": "с.Гоголеве", "lanlng": {"lat": 49.8167489, "lng": 34.1773905}}]}]},{"address": "Київська область", "locations": [{"address": "Білоцерківський район", "locations": []}, {"address": "м. ", "locations": [{"title": "Торговi ряди (мур.)", "address": "Торгова площа", "lanlng": {"lat": 49.7975884, "lng": 30.1166546}}, {"title": "Склади (мур.)", "address": "вул.Червоноармійська, 62", "lanlng": {"lat": 50.4334115, "lng": 30.515496}}, {"title": "Миколаївська церква мур.)", "address": "вул.Гагаріна, 10", "lanlng": {"lat": 50.51287319999999, "lng": 30.7868703}}, {"title": "Спасо-Преображенсь- кий собор (мур.)", "address": "вул.Гагаріна, 10", "lanlng": {"lat": 50.51287319999999, "lng": 30.7868703}}, {"title": "Дворянське зiбрання (дер.)", "address": "бул.Олександрійський, 5", "lanlng": {"lat": 49.7953078, "lng": 30.1096383}}, {"title": "Зимовий палац (дер.)", "address": "бул.Олександрійський, 7", "lanlng": {"lat": 49.7953078, "lng": 30.1096383}}, {"title": "Парк \"Олександрiя\" та парковi споруди", "address": "Сквирське шосе", "lanlng": {"lat": 49.8170521, "lng": 30.0769112}}, {"title": "Ансамбль споруд пошти (мур.)", "address": "бул.Олександрійський, 41-45", "lanlng": {"lat": 49.799218, "lng": 30.109201}}, {"title": "Поштова станція (мур.)", "address": "бул.Олександрійський, 41-45", "lanlng": {"lat": 49.799218, "lng": 30.109201}}, {"title": "Каретна (мур.)", "address": "бул.Олександрійський, 41-45", "lanlng": {"lat": 49.799218, "lng": 30.109201}}, {"title": "Кузня (мур.)", "address": "бул.Олександрійський, 41-45", "lanlng": {"lat": 49.799218, "lng": 30.109201}}, {"title": "Дім станційного доглядача (мур.)", "address": "бул.Олександрійський, 41-45", "lanlng": {"lat": 49.799218, "lng": 30.109201}}, {"title": "Службова будівля (мур.)", "address": "бул.Олександрійський, 41-45", "lanlng": {"lat": 49.799218, "lng": 30.109201}}, {"title": "Готель (мур.)", "address": "бул.Олександрійський, 41-45", "lanlng": {"lat": 49.799218, "lng": 30.109201}}, {"title": "Ямщицька (мур.)", "address": "бул.Олександрійський, 41-45", "lanlng": {"lat": 49.799218, "lng": 30.109201}}, {"title": "Стайня (мур.)", "address": "бул.Олександрійський, 41-45", "lanlng": {"lat": 49.799218, "lng": 30.109201}}, {"title": "Стайня (мур.)", "address": "бул.Олександрійський, 41-45", "lanlng": {"lat": 49.799218, "lng": 30.109201}}, {"title": "Костел Іоанна Предтечі (мур.)", "address": "Соборний майдан, 4", "lanlng": {"lat": 49.5829098, "lng": 34.56802320000001}}, {"title": "Будинок причту костелу Iоанна Предтечi (мур.)", "address": "Соборний майдан,8/4", "lanlng": {"lat": 49.5819603, "lng": 34.5655889}}, {"title": "Святодухiвська церква (дер.)", "address": "с.Шкарiвка", "lanlng": {"lat": 49.7394802, "lng": 30.1645051}}]}, {"address": "Богуславський район", "locations": []}, {"address": "м. Богуслав", "locations": [{"title": "Троїцька церква (мур.)", "address": "пл.Ринок", "lanlng": {"lat": 49.5489436, "lng": 30.8740041}}, {"title": "Воскресенська церква (дер.)", "address": "с.Бородані", "lanlng": {"lat": 49.552934, "lng": 30.7445538}}, {"title": "Успенська церква (дер.)", "address": "с.Вiльховець", "lanlng": {"lat": 49.5493453, "lng": 31.00912}}, {"title": "Iванiвська церква (дер.)", "address": "с.Розкопанцi", "lanlng": {"lat": 49.5405738, "lng": 30.8772055}}, {"title": "Миколаївська церква (дер.)", "address": "с.Чайки", "lanlng": {"lat": 49.5378079, "lng": 30.76257459999999}}]}, {"address": "Бориспільський район", "locations": [{"title": "Покровська церква (мур.)", "address": "с.Сулимiвка", "lanlng": {"lat": 50.39764839999999, "lng": 31.19501589999999}}]}, {"address": "Васильківський район", "locations": []}, {"address": "м. ", "locations": [{"title": "Миколаївська церква (мур.)", "address": "вул.Шевченка, 11", "lanlng": {"lat": 48.4562771, "lng": 35.0564616}}, {"title": "Повiтовi присутственi мiсця (мур.)", "address": "вул.Луначарського, 1", "lanlng": {"lat": 50.4568808, "lng": 30.5922333}}, {"title": "Онуфрiївська церква (дер.)", "address": "с.Липовий Скиток", "lanlng": {"lat": 50.27629959999999, "lng": 30.2058857}}]}, {"address": "Володарський район", "locations": [{"title": "Онуфрiївська церква (дер.)", "address": "с.Пархомiвка", "lanlng": {"lat": 49.5491794, "lng": 30.0462212}}, {"title": "Покровська церква (мур.)", "address": "с.Пархомiвка", "lanlng": {"lat": 49.5491794, "lng": 30.0462212}}, {"title": "Будинок священика (мур.)", "address": "с.Пархомiвка", "lanlng": {"lat": 49.5491794, "lng": 30.0462212}}, {"title": "Сторожка (мур.)", "address": "с.Пархомiвка", "lanlng": {"lat": 49.5491794, "lng": 30.0462212}}, {"title": "Огорожа (мур.)", "address": "с.Пархомiвка", "lanlng": {"lat": 49.5491794, "lng": 30.0462212}}, {"title": "Палац Браницьких (мур.)", "address": "с.Руде Село", "lanlng": {"lat": 49.4988336, "lng": 29.7119809}}, {"title": "Троїцькаа церква (мур.)", "address": "с.Руде Село", "lanlng": {"lat": 49.4988336, "lng": 29.7119809}}]}, {"address": "Кагарлицький район", "locations": []}, {"address": "с м т.  Р ж и щ і в", "locations": [{"title": "Троїцька церква (мур.)", "address": "площа Ринок", "lanlng": {"lat": 49.8416471, "lng": 24.0306519}}]}, {"address": "Києво-Святошинський район", "locations": [{"title": "Поштова станція на 15 кілометрі (мур.)", "address": "шосе Житомир-Київ, 15 км", "lanlng": {"lat": 50.339191, "lng": 30.2487279}}, {"title": "Ямщицька (мур.)", "address": "шосе Житомир-Київ, 15 км", "lanlng": {"lat": 50.339191, "lng": 30.2487279}}, {"title": "Каретна (мур.)", "address": "с.Гурівщина, шосе Житомир-Київ,32 км", "lanlng": {"lat": 50.4331417, "lng": 30.0936907}}, {"title": "Стайня (мур.)", "address": "с.Гурівщина, шосе Житомир-Київ,32 км", "lanlng": {"lat": 50.4331417, "lng": 30.0936907}}, {"title": "Поштова станція на 32 кiлометрi (мур.)", "address": "с.Гурівщина, шосе Житомир-Київ,32 км", "lanlng": {"lat": 50.4331417, "lng": 30.0936907}}, {"title": "Ямщицька (мур.)", "address": "с.Гурівщина, шосе Житомир-Київ,32 км", "lanlng": {"lat": 50.4331417, "lng": 30.0936907}}, {"title": "Каретна (мур.)", "address": "с.Гурівщина, шосе Житомир-Київ,32 км", "lanlng": {"lat": 50.4331417, "lng": 30.0936907}}, {"title": "Стайня (мур.)", "address": "с.Гурівщина, шосе Житомир-Київ,32 км", "lanlng": {"lat": 50.4331417, "lng": 30.0936907}}, {"title": "Огорожа з воротами (мур.)", "address": "с.Гурівщина, шосе Житомир-Київ,32 км", "lanlng": {"lat": 50.4331417, "lng": 30.0936907}}]}, {"address": "Макарівський район", "locations": [{"title": "Поштова станція на 53 кiлометрi (мур.)", "address": "с.Калинівка, шосе Житомир-Київ, 53 км", "lanlng": {"lat": 50.4176441, "lng": 29.8006289}}, {"title": "Ямщицька (мур.)", "address": "с.Калинівка, шосе Житомир-Київ, 53 км", "lanlng": {"lat": 50.4176441, "lng": 29.8006289}}, {"title": "Каретна (мур.)", "address": "с.Калинівка, шосе Житомир-Київ, 53 км", "lanlng": {"lat": 50.4176441, "lng": 29.8006289}}, {"title": "Стайня (мур.)", "address": "с.Калинівка, шосе Житомир-Київ, 53 км", "lanlng": {"lat": 50.4176441, "lng": 29.8006289}}]}, {"address": "Миронівський район", "locations": [{"title": "Миколаївська церква (дер.)", "address": "с.Росава", "lanlng": {"lat": 49.6913846, "lng": 30.9290122}}, {"title": "Церква Рiздва Богородицi (дер.)", "address": "с.Тулинцi", "lanlng": {"lat": 49.8193735, "lng": 31.1830432}}, {"title": "Михайлiвська церква (мур.)", "address": "с.Шандра", "lanlng": {"lat": 49.777665, "lng": 31.1710791}}]}, {"address": "Обухівський район", "locations": [{"title": "Покровська церква (дер.)", "address": "с.Креничi", "lanlng": {"lat": 50.2394162, "lng": 30.5063818}}, {"title": "Миколаївська церква (дер.)", "address": "с.Пiдгiрцi", "lanlng": {"lat": 50.239411, "lng": 30.5455655}}, {"title": "Дзвіниця Миколаївської церкви (дер.)", "address": "с.Пiдгiрцi", "lanlng": {"lat": 50.239411, "lng": 30.5455655}}]}, {"address": "Переяслав-Хмельницький район", "locations": []}, {"address": "м. Переяслав-Хмельницький", "locations": [{"title": "Вознесенський монастир (мур.)", "address": "вул.Г.Сковороди,54", "lanlng": {"lat": 50.07397049999999, "lng": 31.4612871}}, {"title": "Вознесенський собор (мур.)", "address": "вул.Г.Сковороди,54", "lanlng": {"lat": 50.07397049999999, "lng": 31.4612871}}, {"title": "Дзвiниця Вознесенського собору (мур.)", "address": "вул.Г.Сковороди,54", "lanlng": {"lat": 50.07397049999999, "lng": 31.4612871}}, {"title": "Колегiум (мур.)", "address": "вул.Г.Сковороди,54", "lanlng": {"lat": 50.07397049999999, "lng": 31.4612871}}, {"title": "Михайлiвська церква (мур.)", "address": "вул.Московська, 34", "lanlng": {"lat": 50.0654383, "lng": 31.4637119}}, {"title": "Дзвіниця Михайлiвської церкви (мур.)", "address": "вул.Московська, 34", "lanlng": {"lat": 50.0654383, "lng": 31.4637119}}, {"title": "Землянi укрiплення дитинця i мiста", "address": "", "lanlng": {"lat": 50.0715832, "lng": 31.4501543}}, {"title": "Борисоглiбська церква (мур.)", "address": "передмістя с.Бабачиха", "lanlng": {"lat": 50.0715832, "lng": 31.4501543}}, {"title": "Комплекс музею народ-ної архiтектури та побуту", "address": "Михайлова гора", "lanlng": {"lat": 50.0715832, "lng": 31.4501543}}, {"title": "Покровська церква з с.Сухий Яр Ставищен-ського району (дер.)", "address": "Михайлова гора", "lanlng": {"lat": 50.0715832, "lng": 31.4501543}}, {"title": "Трьохсвятительська церква з с.Пiщики Сквир-ського району (дер.)", "address": "Михайлова гора", "lanlng": {"lat": 50.0715832, "lng": 31.4501543}}]}, {"address": "Рокитнянський район", "locations": [{"title": "Троїцька церква (дер.)", "address": "с.Бушеве", "lanlng": {"lat": 49.6385302, "lng": 30.5961339}}, {"title": "Церква Св.Йосифа (дер.)", "address": "с.Житнi Гори", "lanlng": {"lat": 49.73186690000001, "lng": 30.4637793}}, {"title": "Михайлiвська церква (дер.)", "address": "с.Острiв", "lanlng": {"lat": 49.6754284, "lng": 30.3869376}}, {"title": "Дзвіниця Михайлiвської церкви (дер.)", "address": "с.Острiв", "lanlng": {"lat": 49.6754284, "lng": 30.3869376}}, {"title": "Покровська церква (мур.)", "address": "с.Ромашки", "lanlng": {"lat": 49.7318727, "lng": 30.599201}}, {"title": "Миколаївська церква (дер.)", "address": "с.Синява", "lanlng": {"lat": 49.6619685, "lng": 30.4624749}}]}, {"address": "Сквирський район", "locations": [{"title": "Спиридонiвська церква (мур.)", "address": "с.Шамраївка", "lanlng": {"lat": 49.7687709, "lng": 29.8250954}}]}, {"address": "Ставищенський район", "locations": [{"title": "Церква Рiздва Богородиці (дер.)", "address": "с.Антонiвка", "lanlng": {"lat": 49.3916495, "lng": 30.2592838}}]}, {"address": "Таращанський район", "locations": [{"title": "Церква Олександра Невського (дер.)", "address": "с.Дубівка", "lanlng": {"lat": 49.4253045, "lng": 30.4809265}}]}, {"address": "Тетiївський район", "locations": [{"title": "Каплиця (мур.)", "address": "м.Тетiїв", "lanlng": {"lat": 49.3663943, "lng": 29.6583812}}, {"title": "Успенська церква (мур.)", "address": "с.П'ятигори", "lanlng": {"lat": 49.34276269999999, "lng": 29.9286697}}, {"title": "Михайлiвська церква (дер.)", "address": "с.Росішки", "lanlng": {"lat": 49.3095062, "lng": 29.6729227}}, {"title": "Покровська церква (мур.)", "address": "с.Скибинцi", "lanlng": {"lat": 49.4366811, "lng": 29.7347853}}, {"title": "Дзвiниця Покровської церкви (мур.)", "address": "с.Скибинцi", "lanlng": {"lat": 49.4366811, "lng": 29.7347853}}, {"title": "Георгiївська церква (дер.)", "address": "с.Софiполь", "lanlng": {"lat": 49.2992538, "lng": 29.797775}}]}, {"address": "Фастiвський район", "locations": []}, {"address": "м. ", "locations": [{"title": "Покровська церква (дер.)", "address": "смт Кожанка", "lanlng": {"lat": 49.9713653, "lng": 29.7636724}}, {"title": "Iоанно-Златоустівська церква (дер.)", "address": "с.Пiвнi", "lanlng": {"lat": 50.0130887, "lng": 29.7353244}}, {"title": "Садибний будинок (мур.)", "address": "с.Томашівка", "lanlng": {"lat": 50.19516549999999, "lng": 29.82427989999999}}]}]},{"address": "Миколаївщина", "locations": [null]},{"address": "Сумщина", "locations": [null]},{"address": "Харківщина", "locations": [{"address": "м. Харків", "locations": [{"title": "Комплекс споруд Свято-Покровського монастиря (мур.)", "address": "вул.Унiверситетська, 8", "lanlng": {"lat": 49.99198270000001, "lng": 36.2298332}}, {"title": "Покровський собор (мур.)", "address": "вул.Унiверситетська, 8", "lanlng": {"lat": 49.99198270000001, "lng": 36.2298332}}, {"title": "Архієрейський будинок (мур.)", "address": "вул.Унiверситетська, 8", "lanlng": {"lat": 49.99198270000001, "lng": 36.2298332}}, {"title": "Успенський собор (мур.)", "address": "вул.Квiтки-Основ'яненка, 2", "lanlng": {"lat": 49.9911075, "lng": 36.2309819}}, {"title": "Дзвiниця Успенського собору (мур.)", "address": "вул.Квiтки-Основ'яненка, 2", "lanlng": {"lat": 49.9911075, "lng": 36.2309819}}, {"title": "Комплекс споруд унiверситету (мур.)", "address": "вул.Унiверситетська", "lanlng": {"lat": 49.9882747, "lng": 36.23021}}, {"title": "Губернаторський будинок (мур.)", "address": "вул.Унiверситетська, 14", "lanlng": {"lat": 49.9896404, "lng": 36.2301311}}, {"title": "Унiверситетська церква з новим корпусом (мур.)", "address": "вул.Унiверситетська, 25", "lanlng": {"lat": 49.9887547, "lng": 36.2306634}}, {"title": "Хiмiчний корпус унiверситету (мур.)", "address": "вул.Унiверситетська, 12", "lanlng": {"lat": 49.9896404, "lng": 36.2301311}}, {"title": "Фiзичний корпус унiверситету (мур.)", "address": "вул.Унiверситетська, 16", "lanlng": {"lat": 49.988746, "lng": 36.229839}}, {"title": "Брама (мур.)", "address": "вул.Унiверситетська, 4/16", "lanlng": {"lat": 49.99233, "lng": 36.2297032}}, {"title": "Унiверситетський ботанiчний сад", "address": "вул.Клочкiвська", "lanlng": {"lat": 50.0231492, "lng": 36.2097247}}, {"title": "Провiантський склад (мур.)", "address": "вул.Чернишевського, 1", "lanlng": {"lat": 49.9958482, "lng": 36.2359966}}, {"title": "Садибний будинок (мур.)", "address": "вул.Чернишевського, 14", "lanlng": {"lat": 50.01184869999999, "lng": 36.2461897}}, {"title": "Садибний будинок (мур.)", "address": "вул.Дмитрiвська, 14", "lanlng": {"lat": 49.9896505, "lng": 36.215708}}, {"title": "1-а чоловiча гiмназiя (мур.)", "address": "просп.Московський,24", "lanlng": {"lat": 49.98912610000001, "lng": 36.2434383}}, {"title": "Житловий будинок (мур.)", "address": "вул.Пушкiна, 6", "lanlng": {"lat": 49.993013, "lng": 36.2334354}}, {"title": "Садибний будинок (мур.)", "address": "вул.К.Маркса, 26", "lanlng": {"lat": 49.9892099, "lng": 36.21676900000001}}, {"title": "Будинок Держпрому (мур.)", "address": "пл.Свободи, 2", "lanlng": {"lat": 50.0060169, "lng": 36.2277461}}, {"title": "Палац робiтника (мур.)", "address": "вул.Котлова, 81", "lanlng": {"lat": 49.99876339999999, "lng": 36.2041975}}]}, {"address": "Балаклійський район", "locations": [{"title": "Петрiвська фортеця Української лiнiї", "address": "с.Петрiвське", "lanlng": {"lat": 49.17120389999999, "lng": 36.88977879999999}}]}, {"address": "Барвинківський район", "locations": [{"title": "Тамбовська фортеця Української лiнiї", "address": "с.Секретарiвка", "lanlng": {"lat": 48.97609840000001, "lng": 36.9274479}}]}, {"address": "Богодухівський район", "locations": [{"title": "Палацо-парковий ансамбль", "address": "смт.Шарiвка", "lanlng": {"lat": 50.021404, "lng": 35.4388228}}, {"title": "Палац (мур.)", "address": "смт.Шарiвка", "lanlng": {"lat": 50.021404, "lng": 35.4388228}}, {"title": "Будинок варти (мур.)", "address": "смт.Шарiвка", "lanlng": {"lat": 50.021404, "lng": 35.4388228}}, {"title": "Будинок господарського двору (мур.)", "address": "смт.Шарiвка", "lanlng": {"lat": 50.021404, "lng": 35.4388228}}, {"title": "Будинок лiсничого (дер.)", "address": "смт.Шарiвка", "lanlng": {"lat": 50.021404, "lng": 35.4388228}}, {"title": "Парк", "address": "смт.Шарiвка", "lanlng": {"lat": 50.021404, "lng": 35.4388228}}]}, {"address": "Валківський район", "locations": []}, {"address": "смт.Старий Мерчик", "locations": [{"title": "Замiська садиба (мур.)", "address": "", "lanlng": {"lat": 49.9815014, "lng": 35.764449}}, {"title": "Палац (мур.)", "address": "", "lanlng": {"lat": 49.9815014, "lng": 35.764449}}, {"title": "Службовий будинок (мур.)", "address": "", "lanlng": {"lat": 49.9815014, "lng": 35.764449}}, {"title": "Флiгель захiдний (мур.)", "address": "", "lanlng": {"lat": 49.9815014, "lng": 35.764449}}, {"title": "Флiгель схiдний (мур.)", "address": "", "lanlng": {"lat": 49.9815014, "lng": 35.764449}}, {"title": "Амбар (мур.)", "address": "", "lanlng": {"lat": 49.9815014, "lng": 35.764449}}, {"title": "Криниця", "address": "", "lanlng": {"lat": 49.9815014, "lng": 35.764449}}, {"title": "Парк", "address": "", "lanlng": {"lat": 49.9815014, "lng": 35.764449}}]}, {"address": "Вовчанський район", "locations": [{"title": "Замiська садиба (мур.)", "address": "с.Василiвка", "lanlng": {"lat": 50.2361948, "lng": 37.3070703}}, {"title": "Палац (мур.)", "address": "с.Василiвка", "lanlng": {"lat": 50.2361948, "lng": 37.3070703}}]}, {"address": "Зачепилівський район", "locations": [{"title": "Федорівська фортеця Української лінії", "address": "с.Залiнiйне", "lanlng": {"lat": 49.1788901, "lng": 35.1153522}}, {"title": "Козловська фортеця Української лінії", "address": "с.Залiнiйне (околиця)", "lanlng": {"lat": 49.1788901, "lng": 35.1153522}}]}, {"address": "Золочівський район", "locations": [{"title": "Замiська садиба (мур.)", "address": "с.Малижине", "lanlng": {"lat": 50.2179851, "lng": 35.7246611}}, {"title": "Садибний будинок (мур.)", "address": "с.Малижине", "lanlng": {"lat": 50.2179851, "lng": 35.7246611}}, {"title": "Амбар (мур.)", "address": "с.Малижине", "lanlng": {"lat": 50.2179851, "lng": 35.7246611}}, {"title": "Флiгель (дер.)", "address": "с.Малижине", "lanlng": {"lat": 50.2179851, "lng": 35.7246611}}, {"title": "Церква Успiння Богородицi (мур.)", "address": "с.Малижине", "lanlng": {"lat": 50.2179851, "lng": 35.7246611}}]}, {"address": "Ізюмський район", "locations": []}, {"address": "м. Ізюм", "locations": [{"title": "Спасо-Преображенський собор (мур.)", "address": "вул.Старопоштова,12", "lanlng": {"lat": 49.183242, "lng": 37.27527389999999}}, {"title": "Вознесенська церква з дзвiницею (мур.)", "address": "вул.Комсомольська,2", "lanlng": {"lat": 49.2121445, "lng": 37.2665006}}, {"title": "Миколаївська церква (мур.)", "address": "вул.Свердлова, 5", "lanlng": {"lat": 49.2121445, "lng": 37.2665006}}, {"title": "Церква Iоанна Предтечi (мур.)", "address": "с.Іванівка", "lanlng": {"lat": 49.2748438, "lng": 37.1072142}}]}, {"address": "Красноградський район", "locations": [{"title": "Бiльовська фортеця Української лiнiї", "address": "м.Красноград", "lanlng": {"lat": 49.37304899999999, "lng": 35.461353}}, {"title": "Iванiвська фортеця Української лінії", "address": "м.Красноград", "lanlng": {"lat": 49.37304899999999, "lng": 35.461353}}]}, {"address": "Краснокутський район", "locations": [{"title": "Замiська садиба \"Наталiївка\" (мур.)", "address": "с-ще Володимирiвка", "lanlng": {"lat": 50.0756171, "lng": 35.2857355}}, {"title": "Спаська церква (мур.)", "address": "с-ще Володимирiвка", "lanlng": {"lat": 50.0756171, "lng": 35.2857355}}, {"title": "Парк", "address": "с-ще Володимирiвка", "lanlng": {"lat": 50.0756171, "lng": 35.2857355}}, {"title": "Покровська церква (мур.)", "address": "с.Пархомiвка", "lanlng": {"lat": 50.1218916, "lng": 34.9934752}}]}, {"address": "Лозівський район", "locations": [{"title": "Слобiдська фортеця Української лiнiї", "address": "с.Павлiвка Друга", "lanlng": {"lat": 49.1971322, "lng": 36.5900273}}]}, {"address": "Нововодолазький район", "locations": [{"title": "Орловська фортеця Української лiнiї", "address": "с.Дячкiвка (на правому березі р.Берестової, північно-західна околиця)", "lanlng": {"lat": 49.6436234, "lng": 35.8651509}}, {"title": "Парасковiйська фортеця Української лiнiї", "address": "с.Парасковiя", "lanlng": {"lat": 49.5136593, "lng": 35.89360509999999}}, {"title": "Палац (мур.)", "address": "с.Рокитне", "lanlng": {"lat": 49.8063357, "lng": 35.9592985}}, {"title": "Церква Св.Миколи (мур.)", "address": "с.Рокитне", "lanlng": {"lat": 49.8063357, "lng": 35.9592985}}]}, {"address": "Первомайський р-н", "locations": [{"title": "Єфремiвська фортеця Української лiнiї", "address": "с.Єфремівка", "lanlng": {"lat": 49.44969570000001, "lng": 36.0557378}}, {"title": "Михайлiвська фортеця Української лiнiї", "address": "с.Михайлiвка", "lanlng": {"lat": 49.3109289, "lng": 36.4707582}}, {"title": "Олексiївська фортеця Української лiнiї", "address": "с.Олексіївка", "lanlng": {"lat": 49.3934827, "lng": 36.2801222}}]}, {"address": "Харківський район", "locations": []}, {"address": "м. Люботин", "locations": [{"title": "Замiська садиба (мур.)", "address": "пл.Жовтнева", "lanlng": {"lat": 49.9511113, "lng": 35.9407539}}, {"title": "Палац (мур.)", "address": "пл.Жовтнева", "lanlng": {"lat": 49.9511113, "lng": 35.9407539}}, {"title": "Службовий корпус (мур.)", "address": "пл.Жовтнева", "lanlng": {"lat": 49.9511113, "lng": 35.9407539}}, {"title": "Миколаївська церква (мур.)", "address": "вул.Садова, 29-а", "lanlng": {"lat": 49.9511113, "lng": 35.9407539}}, {"title": "Парк", "address": "(район Гиївка)", "lanlng": {"lat": 49.9511113, "lng": 35.9407539}}]}, {"address": "Чугуївський район", "locations": []}, {"address": "м. Чугуїв", "locations": [{"title": "Штаб вiйськових поселень (мур.)", "address": "пл.Ленiна, 2", "lanlng": {"lat": 49.8363158, "lng": 36.6813123}}, {"title": "Мiська управа (мур.)", "address": "вул.Харкiвська, 112", "lanlng": {"lat": 49.8353548, "lng": 36.6860634}}, {"title": "Покровський собор (мур.)", "address": "пл.Ленiна, 5", "lanlng": {"lat": 49.8363158, "lng": 36.6813123}}, {"title": "Торговi ряди (мур.)", "address": "вул.Р.Люксембург, 25", "lanlng": {"lat": 49.8363158, "lng": 36.6813123}}, {"title": "Волосна управа (пiвнiч-ний i південний корпуси) (мур.)", "address": "с.Коробочкине", "lanlng": {"lat": 49.7776857, "lng": 36.8164973}}, {"title": "Найменування памятки", "address": "Місцезнаходження", "lanlng": {"lat": 49.8363158, "lng": 36.6813123}}]}, {"address": "Валківський район", "locations": [{"title": "Миколаївська церква (мур.)", "address": "с.Високопілля", "lanlng": {"lat": 49.9172634, "lng": 35.4139614}}, {"title": "Церква Різдва Богородиці (мур.)", "address": "с.Ков’яги", "lanlng": {"lat": 49.9007661, "lng": 35.5610094}}, {"title": "Парк", "address": "с.Литвинівка", "lanlng": {"lat": 49.84308009999999, "lng": 35.6911613}}]}, {"address": "Великобурлуцький район", "locations": [{"title": "Спаська церква", "address": "смт.Великий Бурлук", "lanlng": {"lat": 50.0600037, "lng": 37.3822945}}]}, {"address": "Вовчанський район", "locations": [{"title": "Хазарське городище", "address": "с.Верхній Салтів", "lanlng": {"lat": 50.13265999999999, "lng": 36.7985954}}]}, {"address": "Дергачівський район", "locations": [{"title": "Церква св. Миколая", "address": "смт. Вільшани", "lanlng": {"lat": 50.05571270000001, "lng": 35.8786359}}, {"title": "Церква Різдва", "address": "м.Дергачі", "lanlng": {"lat": 50.1097212, "lng": 36.1155026}}]}, {"address": "Зачепилівський район", "locations": [{"title": "Козловська фортеця Української лінії", "address": "с.Скалонівка", "lanlng": {"lat": 49.1827496, "lng": 35.1911982}}]}, {"address": "Золочівський район", "locations": [{"title": "Садиба А.І.Ковалевського (мур.)", "address": "с.Сковородинівка", "lanlng": {"lat": 50.1573186, "lng": 35.7710249}}, {"title": "Успенська церква", "address": "с.Мала Рогозянка", "lanlng": {"lat": 50.1195957, "lng": 35.9103849}}, {"title": "Вознесенська церква", "address": "М. Золочів", "lanlng": {"lat": 49.80941, "lng": 24.901371}}]}, {"address": "Ізюмський район", "locations": [{"title": "Церква св. Варвари (мур.)", "address": "с.Капітолівка", "lanlng": {"lat": 49.1941777, "lng": 37.35314049999999}}]}, {"address": "Красноградський район", "locations": [{"title": "Покровська церква", "address": "с. Берестовенька", "lanlng": {"lat": 49.4828008, "lng": 35.5909148}}, {"title": "Шляховий палац", "address": "м.Красноград", "lanlng": {"lat": 49.37304899999999, "lng": 35.461353}}, {"title": "Присуственні місця", "address": "м.Красноград", "lanlng": {"lat": 49.37304899999999, "lng": 35.461353}}, {"title": "Будівля мерії", "address": "м.Красноград", "lanlng": {"lat": 49.37304899999999, "lng": 35.461353}}, {"title": "Вокзал", "address": "м.Красноград", "lanlng": {"lat": 49.37304899999999, "lng": 35.461353}}, {"title": "Редут і вал", "address": "с. Калинівка", "lanlng": {"lat": 49.4464933, "lng": 35.6441817}}, {"title": "Іванівська фортеця Української лінії", "address": "смт.Октябрське", "lanlng": {"lat": 49.46444779999999, "lng": 35.55639850000001}}, {"title": "Церква Віри, Надії, Любові", "address": "с. Соснівка", "lanlng": {"lat": 49.4234759, "lng": 35.6557779}}]}, {"address": "Краснокутський район", "locations": [{"title": "Співаючі тераси", "address": "с.Городнє", "lanlng": {"lat": 50.1200457, "lng": 35.2360361}}, {"title": "Петропавлівський монастир", "address": "м.Краснокутськ", "lanlng": {"lat": 50.0620325, "lng": 35.1582225}}, {"title": "Дендропарк", "address": "м.Краснокутськ", "lanlng": {"lat": 50.0620325, "lng": 35.1582225}}, {"title": "Михайлівська церква", "address": "м.Краснокутськ", "lanlng": {"lat": 50.0620325, "lng": 35.1582225}}, {"title": "Дуб Петра І", "address": "м.Краснокутськ", "lanlng": {"lat": 50.0620325, "lng": 35.1582225}}]}, {"address": "Лозівський район", "locations": [{"title": "Дендропарк «Дружба»", "address": "м.Лозова", "lanlng": {"lat": 48.8902362, "lng": 36.308001}}]}, {"address": "Нововодолазький район", "locations": [{"title": "Преображенська церква", "address": "М. Нова Водолага", "lanlng": {"lat": 49.7218493, "lng": 35.8674135}}, {"title": "Училище", "address": "с.Рокитне", "lanlng": {"lat": 49.8063357, "lng": 35.9592985}}, {"title": "Церква Івана Богослова", "address": "с.Старовірівка", "lanlng": {"lat": 49.5457271, "lng": 35.7380949}}]}, {"address": "Харківський район", "locations": [{"title": "Церква св. Дмитра", "address": "с.Васищеве", "lanlng": {"lat": 49.8338541, "lng": 36.3240107}}, {"title": "Церква св. Михайла", "address": "с.Лизогубівка", "lanlng": {"lat": 49.8156652, "lng": 36.3863246}}, {"title": "Церква Різдва Богородиці", "address": "м. Мерефа", "lanlng": {"lat": 49.8060262, "lng": 36.0503448}}, {"title": "Церква св. Василя Великого", "address": "смт. Пісочин", "lanlng": {"lat": 49.9541962, "lng": 36.0966086}}]}, {"address": "Чугуївський район", "locations": [{"title": "Введенська церква", "address": "с. Введенка", "lanlng": {"lat": 49.822199, "lng": 36.5020281}}, {"title": "Кабакове городище", "address": "селище Есхар", "lanlng": {"lat": 49.7952095, "lng": 36.5920395}}, {"title": "Церква Володимирівської ікони Богоматері", "address": "с. Кочеток", "lanlng": {"lat": 49.8686994, "lng": 36.7138937}}, {"title": "Радіотелескоп УТР-2", "address": "с. Михайлівка", "lanlng": {"lat": 49.6622492, "lng": 36.91693679999999}}]}]},{"address": "Волинь", "locations": [null]},{"address": "Житомирщина", "locations": [{"address": "м. Житомир", "locations": [{"title": "Преображенський собор (мур.)", "address": "пл.Перемоги, 12/14", "lanlng": {"lat": 50.256706, "lng": 28.65747}}, {"title": "Магістрат (мур.)", "address": "вул.Кафедральна, 3", "lanlng": {"lat": 50.25335279999999, "lng": 28.6526895}}, {"title": "Кафедральний костел Св.Софії та дзвіниця (мур.)", "address": "Замкова пл., 2", "lanlng": {"lat": 50.2543093, "lng": 28.6523102}}, {"title": "Семінарський костел Св.Йоана з Дуклі (мур.)", "address": "вул.Київська, 4", "lanlng": {"lat": 50.2552206, "lng": 28.6600927}}, {"title": "Келії єзуїтського монастиря (мур.)", "address": "вул.Черняховського, 12", "lanlng": {"lat": 50.25178469999999, "lng": 28.656569}}, {"title": "Комплекс споруд Поштової станції (мур.) :", "address": "вул.Перемоги, 72", "lanlng": {"lat": 50.2692736, "lng": 28.6488166}}, {"title": "Будинок Поштової станції огорожа (мур.)", "address": "вул.Перемоги, 72", "lanlng": {"lat": 50.2692736, "lng": 28.6488166}}, {"title": "Готель (мур.)", "address": "вул.Перемоги, 72", "lanlng": {"lat": 50.2692736, "lng": 28.6488166}}, {"title": "Стайнім", "address": "вул.Перемоги, 72", "lanlng": {"lat": 50.2692736, "lng": 28.6488166}}, {"title": "Ямські служби (мур.)", "address": "вул.Перемоги, 72", "lanlng": {"lat": 50.2692736, "lng": 28.6488166}}]}, {"address": "Андрушівський район", "locations": [{"title": "Садиба М.Терещенка (мур.) :", "address": "вул.Леніна, 28", "lanlng": {"lat": 50.0571542, "lng": 28.9986543}}, {"title": "Палац (мур.)", "address": "вул.Леніна, 28", "lanlng": {"lat": 50.0571542, "lng": 28.9986543}}, {"title": "Парк", "address": "вул.Леніна, 28", "lanlng": {"lat": 50.0571542, "lng": 28.9986543}}, {"title": "Садиба де-Шодуара (мур.) :", "address": "с.Івниця", "lanlng": {"lat": 50.1493769, "lng": 29.0408992}}, {"title": "Господарський будинок (мур.)", "address": "с.Івниця", "lanlng": {"lat": 50.1493769, "lng": 29.0408992}}, {"title": "Брама (мур.)", "address": "с.Івниця", "lanlng": {"lat": 50.1493769, "lng": 29.0408992}}, {"title": "Башти огорожі (мур.)", "address": "с.Івниця", "lanlng": {"lat": 50.1493769, "lng": 29.0408992}}, {"title": "Парк", "address": "с.Івниця", "lanlng": {"lat": 50.1493769, "lng": 29.0408992}}, {"title": "Костел Св.Антонія Падуанського (мур.)", "address": "с.Стара Котельня", "lanlng": {"lat": 50.10580359999999, "lng": 28.9538224}}]}, {"address": "Бердичівський район", "locations": [{"title": "Костел Св.Варвари (мур.)", "address": "вул.К.Лібкнехта, 25", "lanlng": {"lat": 49.9825206, "lng": 28.6132661}}, {"title": "Кармелітський монастир (мур.) :", "address": "Радянська пл.", "lanlng": {"lat": 49.8894992, "lng": 28.5338665}}, {"title": "Костел Діви Марії з келіями (мур.)", "address": "Радянська пл.", "lanlng": {"lat": 49.8894992, "lng": 28.5338665}}, {"title": "Прибрамний корпус (мур.)", "address": "Радянська пл.", "lanlng": {"lat": 49.8894992, "lng": 28.5338665}}, {"title": "Фортечні мури з баштами та келіями (мур.)", "address": "Радянська пл.", "lanlng": {"lat": 49.8894992, "lng": 28.5338665}}]}, {"address": "Володарсько-Волинський район", "locations": [{"title": "Здвиженська церква з дзвіницею (дер.)", "address": "с.Кам'яний Брід", "lanlng": {"lat": 50.619502, "lng": 28.7029632}}, {"title": "Михайлівська церква (дер.)", "address": "с.Краївщина", "lanlng": {"lat": 50.7413555, "lng": 28.3675973}}, {"title": "Дзвіниц Михайлівської церкви (дер.)", "address": "с.Краївщина", "lanlng": {"lat": 50.7413555, "lng": 28.3675973}}]}, {"address": "Ємільчинський район", "locations": [{"title": "Церква Св.Параскеви (дер.)", "address": "с.Рясне", "lanlng": {"lat": 50.7753626, "lng": 28.1096946}}]}, {"address": "Житомирський район", "locations": [{"title": "Церква Різдва Богородиці (мур.)", "address": "с.Кодня", "lanlng": {"lat": 50.0881383, "lng": 28.6881139}}, {"title": "Дзвіниця церкви Різдва Богородиці (мур.)", "address": "с.Кодня", "lanlng": {"lat": 50.0881383, "lng": 28.6881139}}, {"title": "Садибний будинок (мур.)", "address": "с.Ліщин", "lanlng": {"lat": 50.1522471, "lng": 28.8447486}}, {"title": "Торїцький костел (мур.)", "address": "с.Ліщин", "lanlng": {"lat": 50.1522471, "lng": 28.8447486}}, {"title": "Дзвіниця Троїцького костелу (мур.)", "address": "с.Ліщин", "lanlng": {"lat": 50.1522471, "lng": 28.8447486}}, {"title": "Тригірський Троїцький монастир (мур.) :", "address": "с.Тригір'я", "lanlng": {"lat": 50.1954732, "lng": 28.3757207}}, {"title": "Спасо-Преображенська церква (мур.)", "address": "с.Тригір'я", "lanlng": {"lat": 50.1954732, "lng": 28.3757207}}, {"title": "Корпус келій (мур.)", "address": "с.Тригір'я", "lanlng": {"lat": 50.1954732, "lng": 28.3757207}}]}, {"address": "Коростенський район", "locations": [{"title": "Миколаївська церква (дер.)", "address": "с.Межирічка", "lanlng": {"lat": 51.0748203, "lng": 28.7698584}}, {"title": "Дзвіниця Миколаївської церкви (дер.)", "address": "с.Межирічка", "lanlng": {"lat": 51.0748203, "lng": 28.7698584}}]}, {"address": "Коростишівський район", "locations": [{"title": "Михайлівська церква і дзвіниця (дер.)", "address": "с.Озера", "lanlng": {"lat": 50.3233071, "lng": 29.0795418}}]}, {"address": "Любарський район", "locations": [{"title": "Герогіївський василіа-нський монастир (мур.) :", "address": "смт.Любар", "lanlng": {"lat": 49.91941730000001, "lng": 27.7666835}}, {"title": "Школа Георгіївського василіанського монас-тиря (мур.)", "address": "смт.Любар", "lanlng": {"lat": 49.91941730000001, "lng": 27.7666835}}, {"title": "Садиба (мур.) :", "address": "с.Нова Чортория", "lanlng": {"lat": 50.0327426, "lng": 27.6935062}}, {"title": "Палац (мур.)", "address": "с.Нова Чортория", "lanlng": {"lat": 50.0327426, "lng": 27.6935062}}, {"title": "Брама (мур.)", "address": "с.Нова Чортория", "lanlng": {"lat": 50.0327426, "lng": 27.6935062}}, {"title": "Паровий млин (мур.)", "address": "с.Нова Чортория", "lanlng": {"lat": 50.0327426, "lng": 27.6935062}}, {"title": "Парк", "address": "с.Нова Чортория", "lanlng": {"lat": 50.0327426, "lng": 27.6935062}}]}, {"address": "Овруцький район", "locations": [{"title": "Василівська церква і монастирські споруди (мур.) :", "address": "вул.Пролетарська, 2", "lanlng": {"lat": 51.3139804, "lng": 28.80478}}, {"title": "Церква Св.Василія (мур.)", "address": "вул.Пролетарська, 2", "lanlng": {"lat": 51.3139804, "lng": 28.80478}}, {"title": "Корпус келій Василів-ського монастиря з дзвіницею (мур.)", "address": "вул.Пролетарська, 2", "lanlng": {"lat": 51.3139804, "lng": 28.80478}}]}, {"address": "Олевський район", "locations": [{"title": "Миколаївська церква (мур.)", "address": "смт.Олевськ", "lanlng": {"lat": 51.22075599999999, "lng": 27.6442211}}, {"title": "Церква Різдва Богородиці (дер.)", "address": "с.Жубровичі", "lanlng": {"lat": 51.0691746, "lng": 27.8814269}}]}, {"address": "Ружинський район", "locations": [{"title": "Садиба Ганських (мур.) :", "address": "с.Верхівня", "lanlng": {"lat": 49.8008489, "lng": 29.31019479999999}}, {"title": "Палац (мур.)", "address": "с.Верхівня", "lanlng": {"lat": 49.8008489, "lng": 29.31019479999999}}, {"title": "Флігель (мур.)", "address": "с.Верхівня", "lanlng": {"lat": 49.8008489, "lng": 29.31019479999999}}, {"title": "Флігель (мур.)", "address": "с.Верхівня", "lanlng": {"lat": 49.8008489, "lng": 29.31019479999999}}, {"title": "Костел (мур.)", "address": "с.Верхівня", "lanlng": {"lat": 49.8008489, "lng": 29.31019479999999}}, {"title": "Парк", "address": "с.Верхівня", "lanlng": {"lat": 49.8008489, "lng": 29.31019479999999}}]}, {"address": "Черняхівський район", "locations": [{"title": "Церква Св.Трійці (дер.)", "address": "с.Троковичі", "lanlng": {"lat": 50.3839809, "lng": 28.7144176}}]}, {"address": "Чуднівськи район", "locations": [{"title": "Садиба (мур.) :", "address": "с.Турчинівка", "lanlng": {"lat": 50.031707, "lng": 28.2666918}}, {"title": "Палац (мур.)", "address": "с.Турчинівка", "lanlng": {"lat": 50.031707, "lng": 28.2666918}}, {"title": "Господарський корпус (мур.)", "address": "с.Турчинівка", "lanlng": {"lat": 50.031707, "lng": 28.2666918}}, {"title": "Огорожа з брамою (мур.)", "address": "с.Турчинівка", "lanlng": {"lat": 50.031707, "lng": 28.2666918}}, {"title": "Парк", "address": "с.Турчинівка", "lanlng": {"lat": 50.031707, "lng": 28.2666918}}, {"title": "Садибний будинок (мур.)", "address": "с.Тютюнники", "lanlng": {"lat": 50.0313306, "lng": 28.2312339}}]}]},{"address": "Вінниччина", "locations": [{"address": "м. Вінниця", "locations": [{"title": "Єзуїтський монастир (мур.):", "address": "вул. Леніна, 17", "lanlng": {"lat": 49.233083, "lng": 28.4682169}}, {"title": "Костел (мур.)", "address": "вул. Леніна, 17", "lanlng": {"lat": 49.233083, "lng": 28.4682169}}, {"title": "Колегіум (мур.)", "address": "вул. Леніна, 17", "lanlng": {"lat": 49.233083, "lng": 28.4682169}}, {"title": "Келії (мур.)", "address": "вул. Леніна, 17", "lanlng": {"lat": 49.233083, "lng": 28.4682169}}, {"title": "Домініканський монастир (мур.):", "address": "вул. Леніна, 23", "lanlng": {"lat": 49.233083, "lng": 28.4682169}}, {"title": "Костел (мур.)", "address": "вул. Леніна, 23", "lanlng": {"lat": 49.233083, "lng": 28.4682169}}, {"title": "Келії (мур.)", "address": "вул. Осипенка, 1", "lanlng": {"lat": 49.233225, "lng": 28.474899}}, {"title": "Башта і мури (мур.)", "address": "вул. Осипенка, 1", "lanlng": {"lat": 49.233225, "lng": 28.474899}}, {"title": "Монастир Капуцинів (мур.):", "address": "вул. Соборна, 12 - 14", "lanlng": {"lat": 49.2333817, "lng": 28.4734446}}, {"title": "Костел (мур.)", "address": "вул. Соборна, 12 - 14", "lanlng": {"lat": 49.2333817, "lng": 28.4734446}}, {"title": "Келії (мур.)", "address": "вул. Соборна, 12 - 14", "lanlng": {"lat": 49.2333817, "lng": 28.4734446}}, {"title": "Миколаївська церква (дер.)", "address": "вул. Маяковського, 6", "lanlng": {"lat": 49.2260637, "lng": 28.4701573}}, {"title": "Дзвіниця Миколаївської церкви (зміш.)", "address": "вул. Маяковського, 6", "lanlng": {"lat": 49.2260637, "lng": 28.4701573}}, {"title": "Садиба в П'ятничанах (мур.):", "address": "вул. Мічуріна, 32", "lanlng": {"lat": 49.2481881, "lng": 28.4608558}}, {"title": "Палац (мур.)", "address": "вул. Мічуріна, 32", "lanlng": {"lat": 49.2481881, "lng": 28.4608558}}, {"title": "Флігель палацу (мур.)", "address": "вул. Мічуріна, 32", "lanlng": {"lat": 49.2481881, "lng": 28.4608558}}, {"title": "Павільйон (руїни)", "address": "вул. Мічуріна, 32", "lanlng": {"lat": 49.2481881, "lng": 28.4608558}}]}, {"address": "Барський район", "locations": []}, {"address": "м . Б а р", "locations": [{"title": "Кармелітський Монастир (мур.):", "address": "вул. Монастирська, 55", "lanlng": {"lat": 49.5941268, "lng": 34.5703535}}, {"title": "Костел (Покровська церква) з келіями (мур.)", "address": "вул. Монастирська, 55", "lanlng": {"lat": 49.5941268, "lng": 34.5703535}}, {"title": "Дзвіниця (мур.)", "address": "вул. Монастирська, 55", "lanlng": {"lat": 49.5941268, "lng": 34.5703535}}, {"title": "Корпус келій (мур.)", "address": "вул. Монастирська, 55", "lanlng": {"lat": 49.5941268, "lng": 34.5703535}}, {"title": "Замок (мур.)", "address": "вул. Горького, 7", "lanlng": {"lat": 50.4383449, "lng": 30.5138391}}]}, {"address": "Вінницький район", "locations": []}, {"address": "смт.   В о р о н о в и ц я", "locations": []}, {"address": "Гайсинський район", "locations": [{"title": "Гранівський монастир (мур.):", "address": "с. Тишківська Слобода", "lanlng": {"lat": 48.7800155, "lng": 29.5856644}}, {"title": "Успенський собор (мур.)", "address": "с. Тишківська Слобода", "lanlng": {"lat": 48.7800155, "lng": 29.5856644}}, {"title": "Будинок архієрея (мур.)", "address": "с. Тишківська Слобода", "lanlng": {"lat": 48.7800155, "lng": 29.5856644}}]}, {"address": "Жмеринський район", "locations": [{"title": "Залізничний вокзал (мур.)", "address": "м.Хмеринка", "lanlng": {"lat": 49.0526783, "lng": 28.1007889}}, {"title": "Троїцький монастир (мур.):", "address": "смт. Браїлів, вул. Леніна, 1", "lanlng": {"lat": 49.1064968, "lng": 28.1692267}}, {"title": "Троїцький собор (мур.)", "address": "смт. Браїлів, вул. Леніна, 1", "lanlng": {"lat": 49.1064968, "lng": 28.1692267}}, {"title": "Келії (мур.)", "address": "смт. Браїлів, вул. Леніна, 1", "lanlng": {"lat": 49.1064968, "lng": 28.1692267}}, {"title": "Брама (мур.)", "address": "смт. Браїлів, вул. Леніна, 1", "lanlng": {"lat": 49.1064968, "lng": 28.1692267}}, {"title": "Садиба Вітославського-Львова (мур.):", "address": "с. Чернятин", "lanlng": {"lat": 49.0471128, "lng": 27.9221928}}, {"title": "Палац (мур.)", "address": "с. Чернятин", "lanlng": {"lat": 49.0471128, "lng": 27.9221928}}, {"title": "Брама (мур.)", "address": "с. Чернятин", "lanlng": {"lat": 49.0471128, "lng": 27.9221928}}, {"title": "Господарський флігель (мур.)", "address": "с. Чернятин", "lanlng": {"lat": 49.0471128, "lng": 27.9221928}}, {"title": "Парк", "address": "с. Чернятин", "lanlng": {"lat": 49.0471128, "lng": 27.9221928}}]}, {"address": "Іллінецький район", "locations": [{"title": "Михайлівська церква (дер.)", "address": "смт. Дашів, вул.Кірова, 1", "lanlng": {"lat": 48.9515857, "lng": 29.5350383}}, {"title": "Садиба (мур.):", "address": "смт. Дашів, вул. 40-річчя Жовтня, 18", "lanlng": {"lat": 48.9957904, "lng": 29.4397153}}, {"title": "Палац (мур.)", "address": "смт. Дашів, вул. 40-річчя Жовтня, 18", "lanlng": {"lat": 48.9957904, "lng": 29.4397153}}, {"title": "Стайні (мур.)", "address": "смт. Дашів, вул. 40-річчя Жовтня, 18", "lanlng": {"lat": 48.9957904, "lng": 29.4397153}}, {"title": "Флігель (мур.)", "address": "смт. Дашів, вул. 40-річчя Жовтня, 18", "lanlng": {"lat": 48.9957904, "lng": 29.4397153}}]}, {"address": "Калинівський район", "locations": [{"title": "Михайлівська церква (мур.)", "address": "с. Нова Гребля", "lanlng": {"lat": 49.4646655, "lng": 28.7654055}}]}, {"address": "Козятинський район", "locations": [{"title": "Залізничний вокзал (мур.)", "address": "м. Козятин", "lanlng": {"lat": 49.7408352, "lng": 28.8372721}}, {"title": "Преображенська церква (мур.)", "address": "с. Поличинці", "lanlng": {"lat": 49.7971237, "lng": 28.5254623}}]}, {"address": "Липовецький район", "locations": [{"title": "Садиба Ланге (мур.):", "address": "с. Нападівка", "lanlng": {"lat": 49.2750922, "lng": 29.1349088}}, {"title": "Палац (мур.)", "address": "с. Нападівка", "lanlng": {"lat": 49.2750922, "lng": 29.1349088}}, {"title": "Парк", "address": "с. Нападівка", "lanlng": {"lat": 49.2750922, "lng": 29.1349088}}, {"title": "Флігель (мур.)", "address": "с. Нападівка", "lanlng": {"lat": 49.2750922, "lng": 29.1349088}}, {"title": "Брама (мур.)", "address": "с. Нападівка", "lanlng": {"lat": 49.2750922, "lng": 29.1349088}}, {"title": "Церква Св.Трійці (зміш.)", "address": "с. Нова Прилука", "lanlng": {"lat": 49.3734042, "lng": 28.6989477}}, {"title": "Палац (мур.)", "address": "с. Стара Прилука", "lanlng": {"lat": 49.3904134, "lng": 28.717799}}]}, {"address": "Могилів-Подільський район", "locations": []}, {"address": "м  ", "locations": [{"title": "Георгіївська церква (мур.)", "address": "вул.Єрмака, 12", "lanlng": {"lat": 49.2355549, "lng": 28.4458454}}, {"title": "Дзвіниця Георгіївської церкви (мур.)", "address": "вул.Єрмака, 12", "lanlng": {"lat": 49.2355549, "lng": 28.4458454}}, {"title": "Церква Дмитра Солунського (мур.)", "address": "с.Кукавка", "lanlng": {"lat": 48.6039081, "lng": 27.7020928}}, {"title": "Печерний монастир (мур.)", "address": "с.Лядова", "lanlng": {"lat": 35.7642515, "lng": 10.8112885}}, {"title": "Миколаївська церква (дер.)", "address": "с.Немія, вул.Д.Бідного, 16", "lanlng": {"lat": 48.4651231, "lng": 27.7621947}}, {"title": "Дзвіниця Миколаївської церкви (дер.)", "address": "с.Немія, вул.Д.Бідного, 16", "lanlng": {"lat": 48.4651231, "lng": 27.7621947}}, {"title": "Замок (мур.)", "address": "с.Озаринці", "lanlng": {"lat": 48.5407686, "lng": 27.8090961}}, {"title": "Палац (мур.)", "address": "с.Серебринці", "lanlng": {"lat": 48.5814629, "lng": 27.7050888}}, {"title": "Церква Йоана Богослова з дзвіницею (дер.)", "address": "с.Тропове", "lanlng": {"lat": 48.6545307, "lng": 27.9438205}}]}, {"address": "Мурованокуриловецьки район", "locations": []}, {"address": "с м т   ", "locations": [{"title": "Садиба:", "address": "вул.Спортивна, 1", "lanlng": {"lat": 50.4371865, "lng": 30.5223532}}, {"title": "Палац (мур.)", "address": "вул.Спортивна, 1", "lanlng": {"lat": 50.4371865, "lng": 30.5223532}}, {"title": "Арсенал (мур.)", "address": "вул.Спортивна, 1", "lanlng": {"lat": 50.4371865, "lng": 30.5223532}}, {"title": "Флігель (мур.)", "address": "вул.Спортивна, 1", "lanlng": {"lat": 50.4371865, "lng": 30.5223532}}, {"title": "Мури замку (мур.)", "address": "вул.Спортивна, 1", "lanlng": {"lat": 50.4371865, "lng": 30.5223532}}, {"title": "Міст (мур.)", "address": "вул.Спортивна, 1", "lanlng": {"lat": 50.4371865, "lng": 30.5223532}}, {"title": "Флігель (мур.)", "address": "вул.Спортивна, 1", "lanlng": {"lat": 50.4371865, "lng": 30.5223532}}, {"title": "Парк", "address": "вул.Спортивна, 1", "lanlng": {"lat": 50.4371865, "lng": 30.5223532}}, {"title": "Сажиюа С.Ценіної:", "address": "с.Котюжани, вул.Червоноармійська, 12", "lanlng": {"lat": 48.7728522, "lng": 27.704433}}, {"title": "Падац (мур.)", "address": "с.Котюжани, вул.Червоноармійська, 12", "lanlng": {"lat": 48.7728522, "lng": 27.704433}}, {"title": "Міст (мур.)", "address": "с.Котюжани, вул.Червоноармійська, 12", "lanlng": {"lat": 48.7728522, "lng": 27.704433}}, {"title": "Паок", "address": "с.Котюжани, вул.Червоноармійська, 12", "lanlng": {"lat": 48.7728522, "lng": 27.704433}}]}, {"address": "Немирівський район", "locations": []}, {"address": "м    ", "locations": [{"title": "Палац і парк княгині М.Щербатової:", "address": "вул.Шевченка, 13", "lanlng": {"lat": 49.8444918, "lng": 24.0101726}}, {"title": "Палац (мур.)", "address": "вул.Шевченка, 13", "lanlng": {"lat": 49.8444918, "lng": 24.0101726}}, {"title": "Парк", "address": "вул.Шевченка, 13", "lanlng": {"lat": 49.8444918, "lng": 24.0101726}}, {"title": "Комплекс Немирівської гімназії (мур.):", "address": "вул.Луначарського, 26", "lanlng": {"lat": 50.4582737, "lng": 30.591259}}, {"title": "Чоловічий корпус (мур.)", "address": "вул.Луначарського, 26", "lanlng": {"lat": 50.4582737, "lng": 30.591259}}, {"title": "Жіночий корпус (мур.)", "address": "вул.Луначарського, 26", "lanlng": {"lat": 50.4582737, "lng": 30.591259}}, {"title": "Електростанція і млин (мур.)", "address": "вул.Горького", "lanlng": {"lat": 50.4245543, "lng": 30.515638}}]}, {"address": "Піщанський район", "locations": [{"title": "Садиба графів Чорномських:", "address": "с.Чорномин", "lanlng": {"lat": 48.2226712, "lng": 29.0036823}}, {"title": "Палац (мур.)", "address": "с.Чорномин", "lanlng": {"lat": 48.2226712, "lng": 29.0036823}}, {"title": "Каплиця (мур.)", "address": "с.Чорномин", "lanlng": {"lat": 48.2226712, "lng": 29.0036823}}, {"title": "Парк", "address": "с.Чорномин", "lanlng": {"lat": 48.2226712, "lng": 29.0036823}}, {"title": "Господарський корпус (мур.)", "address": "с.Чорномин", "lanlng": {"lat": 48.2226712, "lng": 29.0036823}}, {"title": "Флігель (мур.)", "address": "с.Чорномин", "lanlng": {"lat": 48.2226712, "lng": 29.0036823}}, {"title": "Сторожка (мур.)", "address": "с.Чорномин", "lanlng": {"lat": 48.2226712, "lng": 29.0036823}}]}, {"address": "Погребищенський район", "locations": [{"title": "Палац (мур.)", "address": "с.Андрушівка, вул.Калініна", "lanlng": {"lat": 49.3617666, "lng": 29.2071195}}, {"title": "Садибний будинок графа Ігнатьєва (мур.)", "address": "с.Круподеринці, вул.Годзівка", "lanlng": {"lat": 49.5055662, "lng": 29.3445124}}, {"title": "Церква-мавзолей графа Ігнатьєва (мур.)", "address": "с.Круподеринці, вул.Нижня Гута", "lanlng": {"lat": 49.5055662, "lng": 29.3445124}}, {"title": "Садиба (мур.):", "address": "с.Спичинці, вул.Центральна", "lanlng": {"lat": 49.4133456, "lng": 29.164467}}, {"title": "Палац (мур.)", "address": "с.Спичинці, вул.Центральна", "lanlng": {"lat": 49.4133456, "lng": 29.164467}}, {"title": "Парк", "address": "с.Спичинці, вул.Центральна", "lanlng": {"lat": 49.4133456, "lng": 29.164467}}, {"title": "Флігель (мур.)", "address": "с.Спичинці, вул.Центральна", "lanlng": {"lat": 49.4133456, "lng": 29.164467}}, {"title": "Церква Св.Параскеви (мур.)", "address": "с.Старостинці", "lanlng": {"lat": 49.5659237, "lng": 29.2320317}}]}, {"address": "Т и в р і в", "locations": [{"title": "Черленківський замок (башта) (мур.)", "address": "с.Селище", "lanlng": {"lat": 49.13526940000001, "lng": 28.3573329}}]}, {"address": "Томашпільський район", "locations": [{"title": "Садиба:", "address": "С.Антопіль", "lanlng": {"lat": 48.4688117, "lng": 28.6793289}}, {"title": "Палац (мур.)", "address": "С.Антопіль", "lanlng": {"lat": 48.4688117, "lng": 28.6793289}}, {"title": "Господарський будинок (мур.)", "address": "С.Антопіль", "lanlng": {"lat": 48.4688117, "lng": 28.6793289}}, {"title": "Брама (мур.)", "address": "С.Антопіль", "lanlng": {"lat": 48.4688117, "lng": 28.6793289}}, {"title": "Парк", "address": "С.Антопіль", "lanlng": {"lat": 48.4688117, "lng": 28.6793289}}, {"title": "Садиба:", "address": "с.Комаргород", "lanlng": {"lat": 48.53370899999999, "lng": 28.6104411}}, {"title": "Палац (мур.)", "address": "с.Комаргород", "lanlng": {"lat": 48.53370899999999, "lng": 28.6104411}}, {"title": "Парк", "address": "с.Комаргород", "lanlng": {"lat": 48.53370899999999, "lng": 28.6104411}}, {"title": "Костел (мур.)", "address": "с.Комаргород", "lanlng": {"lat": 48.53370899999999, "lng": 28.6104411}}, {"title": "Успенська церква (дер.)", "address": "с.Марківка", "lanlng": {"lat": 48.465996, "lng": 28.71470219999999}}, {"title": "Дзвіниця Успенської церкви (дер.)", "address": "с.Марківка", "lanlng": {"lat": 48.465996, "lng": 28.71470219999999}}]}, {"address": "Тростянецький район", "locations": [{"title": "Садиба Собанських:", "address": "с.Верхівка", "lanlng": {"lat": 48.453283, "lng": 29.1528593}}, {"title": "Палац (мур.)", "address": "с.Верхівка", "lanlng": {"lat": 48.453283, "lng": 29.1528593}}, {"title": "Стайні (мур.)", "address": "с.Верхівка", "lanlng": {"lat": 48.453283, "lng": 29.1528593}}, {"title": "Брама (мур.)", "address": "с.Верхівка", "lanlng": {"lat": 48.453283, "lng": 29.1528593}}, {"title": "Парк", "address": "с.Верхівка", "lanlng": {"lat": 48.453283, "lng": 29.1528593}}]}, {"address": "Тульчинський район", "locations": []}, {"address": "м. ", "locations": [{"title": "Малий (новий) палац Потоцьких (мур.):", "address": "вул.Леніна, 8", "lanlng": {"lat": 44.6143601, "lng": 33.5250156}}, {"title": "Комплекс старого палацу Потоцьких (мур.):", "address": "вул.Леонтовича, 19, вул. 30 років Перемоги", "lanlng": {"lat": 50.4452411, "lng": 30.5096891}}, {"title": "Палац (мур.)", "address": "вул.Леонтовича, 19", "lanlng": {"lat": 49.8443216, "lng": 24.0178982}}, {"title": "Театр (мур.)", "address": "вул.Леонтовича, 19", "lanlng": {"lat": 49.8443216, "lng": 24.0178982}}, {"title": "Флігель (мур.)", "address": "вул. 30 років Перемоги", "lanlng": {"lat": 49.4247403, "lng": 32.0132375}}, {"title": "Флігель (мур.)", "address": "вул. 30 років Перемоги", "lanlng": {"lat": 49.4247403, "lng": 32.0132375}}, {"title": "Будинок декабристів (мур.)", "address": "вул.Гагаріна, 13", "lanlng": {"lat": 48.482434, "lng": 34.0146758}}, {"title": "Успенська церква (мур.)", "address": "вул.Гагаріна, 13", "lanlng": {"lat": 48.482434, "lng": 34.0146758}}, {"title": "Дзвіниця Успенської церкви (мур.)", "address": "вул.Гагаріна, 13", "lanlng": {"lat": 48.482434, "lng": 34.0146758}}, {"title": "Костел домініканців з келіями (мур.)", "address": "вул.Леніна, 67", "lanlng": {"lat": 48.4824829, "lng": 34.2410355}}, {"title": "Церква Різдва Богородиці (дер.)", "address": "с.Печера", "lanlng": {"lat": 48.8550803, "lng": 28.7236193}}, {"title": "Дзвіниця церкви Різдва Богородиці (мур.)", "address": "с.Печера", "lanlng": {"lat": 48.8550803, "lng": 28.7236193}}, {"title": "Костел-мавзолей графів Потоцьких (мур.)", "address": "с.Печера", "lanlng": {"lat": 48.8550803, "lng": 28.7236193}}]}, {"address": "Хмільницький район", "locations": []}, {"address": "м. ", "locations": [{"title": "Садиба (мур.):", "address": "вул.Шевченка, 1", "lanlng": {"lat": 49.84258020000001, "lng": 24.0158859}}, {"title": "Палац (мур.)", "address": "вул.Шевченка, 1", "lanlng": {"lat": 49.84258020000001, "lng": 24.0158859}}, {"title": "Башта замку (мур.)", "address": "вул.Шевченка, 1", "lanlng": {"lat": 49.84258020000001, "lng": 24.0158859}}, {"title": "Міст (мур.)", "address": "вул.Шевченка, 1", "lanlng": {"lat": 49.84258020000001, "lng": 24.0158859}}, {"title": "Вознесенська церква (мур.)", "address": "с.Уланів", "lanlng": {"lat": 49.6911273, "lng": 28.1308882}}]}, {"address": "Чернівецький район", "locations": [{"title": "Каплиця-мавзолей Маньковських (мур.)", "address": "смт.Чернівці", "lanlng": {"lat": 48.5404811, "lng": 28.108548}}]}, {"address": "Шаргородськи район", "locations": []}, {"address": "м. ", "locations": [{"title": "Комплекс костелу Св.Флоріана Шарого (мур.):", "address": "вул.Леніна, 207", "lanlng": {"lat": 48.7365199, "lng": 28.0846918}}, {"title": "Костел Св.Флоріана Шарого (мур.)", "address": "вул.К.Маркса, 100", "lanlng": {"lat": 48.7365199, "lng": 28.0846918}}, {"title": "Фонтан (мур.)", "address": "вул.К.Маркса, 100", "lanlng": {"lat": 55.5673975, "lng": 42.0165852}}, {"title": "Мури (мур.)", "address": "вул.Щорса", "lanlng": {"lat": 50.4256915, "lng": 30.5271221}}, {"title": "Башта (мур.)", "address": "вул.Щорса", "lanlng": {"lat": 50.4256915, "lng": 30.5271221}}, {"title": "Заїзд (зміш.)", "address": "с-ще Мурафа", "lanlng": {"lat": 48.7730858, "lng": 28.2155078}}, {"title": "Домініканський монастир (мур.):", "address": "с-ще Мурафа", "lanlng": {"lat": 48.7730858, "lng": 28.2155078}}, {"title": "Костел Безпорочного Зачаття Діви Марії (мур.)", "address": "с-ще Мурафа", "lanlng": {"lat": 48.7730858, "lng": 28.2155078}}, {"title": "Келії (мур.)", "address": "с-ще Мурафа", "lanlng": {"lat": 48.7730858, "lng": 28.2155078}}, {"title": "Будинок ігумена (мур.)", "address": "с-ще Мурафа", "lanlng": {"lat": 48.7730858, "lng": 28.2155078}}, {"title": "Дзвіниця (мур.)", "address": "с-ще Мурафа", "lanlng": {"lat": 48.7730858, "lng": 28.2155078}}, {"title": "Мур з брамою (мур.)", "address": "с-ще Мурафа", "lanlng": {"lat": 48.7730858, "lng": 28.2155078}}, {"title": "Покровська церква (дер.)", "address": "с.Лозова", "lanlng": {"lat": 48.8902362, "lng": 36.308001}}, {"title": "Дзвіниця Покровської церки (дер.)", "address": "с.Лозова", "lanlng": {"lat": 48.8902362, "lng": 36.308001}}, {"title": "Миколаївська церква (дер.)", "address": "с.Лозова", "lanlng": {"lat": 48.8902362, "lng": 36.308001}}, {"title": "Дзвіниця Миколаївської церкви (дер.)", "address": "с.Лозова", "lanlng": {"lat": 48.8902362, "lng": 36.308001}}, {"title": "Церква Різдва Богородиці (дер.)", "address": "с.Слобода-Шаргородська", "lanlng": {"lat": 48.7361283, "lng": 28.0673045}}]}, {"address": "Ямпільський район", "locations": [{"title": "Давньослов'янський печерний зрам з \"Бушинським Рельєфом\" (мур.)", "address": "с.Буша", "lanlng": {"lat": 48.3411664, "lng": 28.1200375}}, {"title": "Башта замку (мур.)", "address": "с.Буша", "lanlng": {"lat": 48.3411664, "lng": 28.1200375}}]}]},{"address": "Закарпаття", "locations": [{"address": "м. Ужгород", "locations": [{"title": "Замок-фортеця (мур.)", "address": "вул.Капітульна, 33", "lanlng": {"lat": 48.6215629, "lng": 22.3069585}}, {"title": "Здвиженський кафед-ральний собор (мур.)", "address": "вул.Капітульна, 11", "lanlng": {"lat": 48.6227865, "lng": 22.3030682}}, {"title": "Резиденція єпископа (мур.)", "address": "вул.Капітульна, 9", "lanlng": {"lat": 48.6231136, "lng": 22.3021684}}, {"title": "Будинок правління Ужан-ського комітату (мур.)", "address": "пл.Жупанатська, 3", "lanlng": {"lat": 48.6250392, "lng": 22.2963438}}, {"title": "Шпихлір і винний погріб (мур.)", "address": "вул.Ракоці, 2", "lanlng": {"lat": 48.62495329999999, "lng": 22.2946918}}, {"title": "Садибний будинок у Радванці (мур.)", "address": "вул.Дієндеші, 8", "lanlng": {"lat": 48.61197850000001, "lng": 22.318164}}, {"title": "Шелестівська Михай-лівська церква (дер.)", "address": "вул.Капітульна, 33 а", "lanlng": {"lat": 48.6215629, "lng": 22.3069585}}, {"title": "Горянська церква Св.Миколи (мур.)", "address": "пров.Музейний", "lanlng": {"lat": 48.6068035, "lng": 22.3354447}}]}, {"address": "м. Мукачеве", "locations": [{"title": "Замок \"Паланок\" (мур.)", "address": "Замкова гора", "lanlng": {"lat": 48.4493055, "lng": 22.7117106}}, {"title": "Палац графів Шенборнів \"Білий будинок\" (мур.)", "address": "вул.Миру, 26 - 28", "lanlng": {"lat": 48.4493055, "lng": 22.7117106}}, {"title": "Каплиця Св.Мартина (мур.)", "address": "вул.Миру, 51", "lanlng": {"lat": 48.4493055, "lng": 22.7117106}}, {"title": "Миколаївський монастир (мур.) :", "address": "вул.Північна, 2", "lanlng": {"lat": 48.4563412, "lng": 22.7290369}}, {"title": "Миколаївська церква (мур.)", "address": "вул.Північна, 2", "lanlng": {"lat": 48.4563412, "lng": 22.7290369}}, {"title": "Келії з дзвіницею (мур.)", "address": "вул.Північна, 2", "lanlng": {"lat": 48.4563412, "lng": 22.7290369}}]}, {"address": "Берегівський район", "locations": []}, {"address": "м. Берегове", "locations": [{"title": "Ансамбль споруд \"Граф-ського двору\" (мур.):", "address": "вул.Г.Бетлена, 1", "lanlng": {"lat": 48.20542390000001, "lng": 22.6481062}}, {"title": "Палац князя Г.Бетлена (мур.)", "address": "вул.Г.Бетлена, 1", "lanlng": {"lat": 48.20542390000001, "lng": 22.6481062}}, {"title": "Каретна і зерносховище (мур.)", "address": "вул.Г.Бетлена, 1", "lanlng": {"lat": 48.20542390000001, "lng": 22.6481062}}, {"title": "Стайні (мур.)", "address": "вул.Г.Бетлена, 1", "lanlng": {"lat": 48.20542390000001, "lng": 22.6481062}}, {"title": "Костел (мур.)", "address": "вул.Шандора Петефі, 30", "lanlng": {"lat": 48.2308019, "lng": 22.6393791}}, {"title": "Костел (мур.)", "address": "вул.Тиноди", "lanlng": {"lat": 48.20700069999999, "lng": 22.6354656}}, {"title": "Костел (мур.)", "address": "с.Бене", "lanlng": {"lat": 48.1648837, "lng": 22.761031}}, {"title": "Костел (мур.)", "address": "с.Кідьош (Зміївка)", "lanlng": {"lat": 48.21980079999999, "lng": 22.6984262}}, {"title": "Замок (руїни) (мур.)", "address": "с.Квасове", "lanlng": {"lat": 48.186344, "lng": 22.7710858}}, {"title": "Костел (руїни) Йоана Хрестителя (мур.)", "address": "с.Мужієве", "lanlng": {"lat": 48.1799618, "lng": 22.7011763}}, {"title": "Реформаторська церква з дзвіницею (зміш.)", "address": "с.Четфалва", "lanlng": {"lat": 48.1260352, "lng": 22.7967515}}]}, {"address": "Великоберезнянський район", "locations": [{"title": "Церква Св.Ганни (дер.)", "address": "с.Буківцьово", "lanlng": {"lat": 48.8249215, "lng": 22.6756479}}, {"title": "Михайлівська церква (дер.)", "address": "с.Вишка", "lanlng": {"lat": 48.9424218, "lng": 22.690647}}, {"title": "Миколаївська церква (дер.)", "address": "с.Гусний", "lanlng": {"lat": 48.9456059, "lng": 22.847727}}, {"title": "Дзвіниця Миколаївської церкви (дер.)", "address": "с.Гусний", "lanlng": {"lat": 48.9456059, "lng": 22.847727}}, {"title": "Покровська церква (дер.)", "address": "с.Кострина", "lanlng": {"lat": 48.940919, "lng": 22.5887571}}, {"title": "Василівська церква (дер.)", "address": "с.Сіль", "lanlng": {"lat": 48.9523283, "lng": 22.5203975}}, {"title": "Предтечинська церква (дер.)", "address": "с.Сухий", "lanlng": {"lat": 48.9497809, "lng": 22.789461}}, {"title": "Михайлівська церква (дер.)", "address": "с.Ужок", "lanlng": {"lat": 48.9853574, "lng": 22.8609322}}, {"title": "Дзвіниця Михайлівської церкви (дер.)", "address": "с.Ужок", "lanlng": {"lat": 48.9853574, "lng": 22.8609322}}, {"title": "Миколаївська церква (дер.)", "address": "с.Чорноголова", "lanlng": {"lat": 48.8513446, "lng": 22.611872}}]}, {"address": "Виноградівський район", "locations": []}, {"address": "м. Виноградів", "locations": [{"title": "Францисканський монастир (мур.) :", "address": "вул.Миру, 3", "lanlng": {"lat": 48.14634909999999, "lng": 23.0302123}}, {"title": "Костел (мур.)", "address": "вул.Миру, 3", "lanlng": {"lat": 48.14634909999999, "lng": 23.0302123}}, {"title": "Корпус келій (мур.)", "address": "вул.Миру, 3", "lanlng": {"lat": 48.14634909999999, "lng": 23.0302123}}, {"title": "Вознесенський костел (мур.)", "address": "вул.Миру, 12", "lanlng": {"lat": 48.14634909999999, "lng": 23.0302123}}, {"title": "Садиба барона Перені (мур.):", "address": "вул.Радянська, 10", "lanlng": {"lat": 48.14634909999999, "lng": 23.0302123}}, {"title": "Палац банора Перені (мур.)", "address": "вул.Радянська, 10", "lanlng": {"lat": 48.14634909999999, "lng": 23.0302123}}, {"title": "Службові флігелі (мур.)", "address": "вул.Радянська, 10", "lanlng": {"lat": 48.14634909999999, "lng": 23.0302123}}, {"title": "Брама (мур.)", "address": "вул.Радянська, 10", "lanlng": {"lat": 48.14634909999999, "lng": 23.0302123}}, {"title": "Парк", "address": "вул.Радянська, 10", "lanlng": {"lat": 48.14634909999999, "lng": 23.0302123}}, {"title": "Угочанський замок (руїни) (мур.)", "address": "вул.Коцюбинського", "lanlng": {"lat": 48.14634909999999, "lng": 23.0302123}}, {"title": "Костел Св.Єлени (мур.)", "address": "смт.Вилок", "lanlng": {"lat": 48.1100924, "lng": 22.8417209}}, {"title": "Замок (мур.)", "address": "смт.Королеве", "lanlng": {"lat": 48.1525702, "lng": 23.1369121}}, {"title": "Успенська церква (дер.)", "address": "с.Новоселиця", "lanlng": {"lat": 48.1321083, "lng": 23.2268978}}, {"title": "Дзвіниця Успенської церкви (дер.)", "address": "с.Новоселиця", "lanlng": {"lat": 48.1321083, "lng": 23.2268978}}, {"title": "Стрітенська церква (дер.)", "address": "с.Руська Долина", "lanlng": {"lat": 48.1263647, "lng": 22.9231529}}, {"title": "Церква (мур.)", "address": "с.Шаланки", "lanlng": {"lat": 48.226111, "lng": 22.8815692}}]}, {"address": "Воловецький район", "locations": [{"title": "Святодухівська церква (дер.)", "address": "с.Гукливий", "lanlng": {"lat": 48.7011242, "lng": 23.2337673}}, {"title": "Дзвіниця Святодухівської церкви (дер.)", "address": "с.Гукливий", "lanlng": {"lat": 48.7011242, "lng": 23.2337673}}, {"title": "Миколаївська церква (дер.)", "address": "с.Задільське", "lanlng": {"lat": 48.7645401, "lng": 23.0689679}}, {"title": "Дзвіниця Миколаївської церкви (дер.)", "address": "с.Задільське", "lanlng": {"lat": 48.7645401, "lng": 23.0689679}}, {"title": "Іллінська церква (дер.)", "address": "с.Тишів", "lanlng": {"lat": 48.8111826, "lng": 23.0709213}}, {"title": "Дзвіниця Іллінської церкви (дер.)", "address": "с.Тишів", "lanlng": {"lat": 48.8111826, "lng": 23.0709213}}, {"title": "Святодухівська церква (дер.)", "address": "с.Котельниця", "lanlng": {"lat": 48.822374, "lng": 23.0681643}}, {"title": "Дзвіниця Святодухівської церкви (дер.)", "address": "с.Котельниця", "lanlng": {"lat": 48.822374, "lng": 23.0681643}}, {"title": "Вознесенська церква (дер.)", "address": "с.Ялове", "lanlng": {"lat": 48.766692, "lng": 23.0399275}}, {"title": "Дзвіниця Вознгесенської церкви (дер.)", "address": "с.Ялове", "lanlng": {"lat": 48.766692, "lng": 23.0399275}}]}, {"address": "Іршавський район", "locations": [{"title": "Палац-фортеця (мур.)", "address": "смт.Довге, вул.Перемоги, 3", "lanlng": {"lat": 48.3640578, "lng": 23.2786949}}, {"title": "Покровська церква (дер.)", "address": "с.Дешковиця", "lanlng": {"lat": 48.3589771, "lng": 22.9988446}}, {"title": "Дзвіниця Покровської церкви (дер.)", "address": "с.Дешковиця", "lanlng": {"lat": 48.3589771, "lng": 22.9988446}}, {"title": "Михайлівська церква (дер.)", "address": "с.Івашковиця", "lanlng": {"lat": 48.4432908, "lng": 22.9639253}}, {"title": "дзвіниця Михайлівської церкви (дер.)", "address": "с.Івашковиця", "lanlng": {"lat": 48.4432908, "lng": 22.9639253}}, {"title": "Монастир (мур.) :", "address": "с.Імстичеве", "lanlng": {"lat": 48.292944, "lng": 23.1927084}}, {"title": "Михайлівська церква (мур.)", "address": "с.Імстичеве", "lanlng": {"lat": 48.292944, "lng": 23.1927084}}, {"title": "Корпус келій (мур.)", "address": "с.Імстичеве", "lanlng": {"lat": 48.292944, "lng": 23.1927084}}, {"title": "Введенська церква (дер.)", "address": "с.Локіть", "lanlng": {"lat": 48.4270664, "lng": 22.984724}}]}, {"address": "М і ж г і р с ь к и й   р -н", "locations": [{"title": "Введенська церква (дер.)", "address": "с.Буківець", "lanlng": {"lat": 49.2663993, "lng": 21.7120263}}, {"title": "Дзвіниця Введенської церкви (дер.)", "address": "с.Буківець", "lanlng": {"lat": 49.2663993, "lng": 21.7120263}}, {"title": "Миколаївська церква (дер.)", "address": "с.Верхній Студений", "lanlng": {"lat": 48.7376774, "lng": 23.3543273}}, {"title": "Дзвіниця Миколаївської церкви (дер.)", "address": "с.Верхній Студений", "lanlng": {"lat": 48.7376774, "lng": 23.3543273}}, {"title": "Миколаївська церква (дер.)", "address": "с.Ізки", "lanlng": {"lat": 48.64756149999999, "lng": 23.3667572}}, {"title": "Дзвіниця Миколаївської церкви (дер.)", "address": "с.Ізки", "lanlng": {"lat": 48.64756149999999, "lng": 23.3667572}}, {"title": "Святодухівська церква (дер.)", "address": "смт.Колочава", "lanlng": {"lat": 48.418023, "lng": 23.7371118}}, {"title": "Дзвіниця Святодухівської церкви (дер.)", "address": "смт.Колочава", "lanlng": {"lat": 48.418023, "lng": 23.7371118}}, {"title": "Михайлівськк церква (дер.)", "address": "с.Негровець", "lanlng": {"lat": 48.4613701, "lng": 23.6411981}}, {"title": "Дзвіниця Михїайлівської церкви (дер.)", "address": "с.Негровець", "lanlng": {"lat": 48.4613701, "lng": 23.6411981}}, {"title": "Благовіщенська церква (дер.)", "address": "с.Негровець", "lanlng": {"lat": 48.4613701, "lng": 23.6411981}}, {"title": "Дзвіниця Благовіщенської церкви (дер.)", "address": "с.Негровець", "lanlng": {"lat": 48.4613701, "lng": 23.6411981}}, {"title": "Церква Різвда Богородиці (дер.)", "address": "с.Пилипець", "lanlng": {"lat": 48.6706412, "lng": 23.3331757}}, {"title": "Дзвіниця церкви Різдва Богородиці (дер.)", "address": "с.Пилипець", "lanlng": {"lat": 48.6706412, "lng": 23.3331757}}, {"title": "Миколаївська церква (дер.)", "address": "с.Подобовець", "lanlng": {"lat": 48.67361289999999, "lng": 23.2944843}}, {"title": "Дзвіниця Миколаївської церкви (дер.)", "address": "с.Подобовець", "lanlng": {"lat": 48.67361289999999, "lng": 23.2944843}}, {"title": "Дмитрівська церква (дер.)", "address": "с.Репінне", "lanlng": {"lat": 48.5835483, "lng": 23.4429935}}, {"title": "Миколаївська церква (дер.)", "address": "с.Рокити", "lanlng": {"lat": 49.6873844, "lng": 33.0084261}}, {"title": "Дзвіниця Миколаївської церкви (дер.)", "address": "с.Рокити", "lanlng": {"lat": 49.6873844, "lng": 33.0084261}}, {"title": "Покровська церква (дер.)", "address": "с.Синевірська Поляна", "lanlng": {"lat": 48.5858906, "lng": 23.6891102}}, {"title": "Дзвіниця Покровської церкви (дер.)", "address": "с.Синевірська Поляна", "lanlng": {"lat": 48.5858906, "lng": 23.6891102}}, {"title": "Введенська церква (дер.)", "address": "с.Торунь", "lanlng": {"lat": 53.0137902, "lng": 18.5984437}}, {"title": "Дзвіниця Введенської церкви (дер.)", "address": "с.Торунь", "lanlng": {"lat": 53.0137902, "lng": 18.5984437}}]}, {"address": "Мукачівський район", "locations": [{"title": "Дмитрівська церква (дер.)", "address": "с.Вільховиця", "lanlng": {"lat": 48.482788, "lng": 22.8477923}}, {"title": "Палац графів Шенборнів (мур.)", "address": "смт.Чинадієве", "lanlng": {"lat": 48.4907371, "lng": 22.8097434}}, {"title": "Замок (мур.)", "address": "", "lanlng": {"lat": 48.5206301, "lng": 22.723114}}]}, {"address": "Перечинський район", "locations": [{"title": "Василівська церква (дер.)", "address": "с.Лікіцари", "lanlng": {"lat": 48.778205, "lng": 22.7222414}}, {"title": "Дзвіниця Василівської церкви (зміш.)", "address": "с.Лікіцари", "lanlng": {"lat": 48.778205, "lng": 22.7222414}}]}, {"address": "Рахівський район", "locations": [{"title": "Вознесенська (Струків-ська) церква (дер.)", "address": "смт.Ясіня", "lanlng": {"lat": 48.2705993, "lng": 24.3564134}}, {"title": "Дзвіниця Вознесенської (Струківської) церкви (дер.)", "address": "смт.Ясіня", "lanlng": {"lat": 48.2705993, "lng": 24.3564134}}, {"title": "Успенська церква (дер.)", "address": "с.Ділове", "lanlng": {"lat": 47.9359496, "lng": 24.1736814}}, {"title": "Вознесенська церква (дер.)", "address": "смт. Кобилецька Поляна", "lanlng": {"lat": 48.0514686, "lng": 24.0616957}}, {"title": "Дзвіниця Вознесенської церкви (дер.)", "address": "смт. Кобилецька Поляна", "lanlng": {"lat": 48.0514686, "lng": 24.0616957}}, {"title": "Петропавлівська церква (дер.)", "address": "с.Лазещина", "lanlng": {"lat": 48.2735736, "lng": 24.411971}}, {"title": "Дзвіниця Петропав-лівської церкви (дер.)", "address": "с.Лазещина", "lanlng": {"lat": 48.2735736, "lng": 24.411971}}, {"title": "Миколаївська церква (верхня ) (дер.)", "address": "с.Середнє Водяне", "lanlng": {"lat": 47.98488220000001, "lng": 23.9117575}}, {"title": "Дзвіниуя Миколаївської (верхньої) церкви (дер.)", "address": "с.Середнє Водяне", "lanlng": {"lat": 47.98488220000001, "lng": 23.9117575}}, {"title": "Миколаївська церква (нижня) (дер.)", "address": "с.Середнє Водяне", "lanlng": {"lat": 47.98488220000001, "lng": 23.9117575}}]}, {"address": "Свілявськи район", "locations": [{"title": "Миколаївська церква (дер.)", "address": "м.Свалява (Бистрий)", "lanlng": {"lat": 48.538362, "lng": 22.9849142}}]}, {"address": "Тячівський район", "locations": [{"title": "Реформаторський костел", "address": "м.Тячів", "lanlng": {"lat": 48.017152, "lng": 23.572467}}, {"title": "Миколаївська церква (дер.)", "address": "с.Діброва", "lanlng": {"lat": 48.004413, "lng": 23.8349311}}, {"title": "Дзвіниуя Миколаївської церкви (дер.)", "address": "с.Діброва", "lanlng": {"lat": 48.004413, "lng": 23.8349311}}, {"title": "Миколаївська церква (дер.)", "address": "с.Колодне", "lanlng": {"lat": 48.1643208, "lng": 23.5955049}}, {"title": "Дзвіниуя Миколаївської церкви (дер.)", "address": "с.Колодне", "lanlng": {"lat": 48.1643208, "lng": 23.5955049}}, {"title": "Михайлівська церква (дер.)", "address": "с.Нересниця", "lanlng": {"lat": 48.11728160000001, "lng": 23.7691119}}]}, {"address": "Ужгородський район", "locations": [{"title": "Реформаторський костел (мур.)", "address": "с.Комарівці", "lanlng": {"lat": 48.5204681, "lng": 22.436926}}, {"title": "Костел (мур.)", "address": "с.Тарнівці", "lanlng": {"lat": 48.5875704, "lng": 22.2205879}}, {"title": "Костел (мур.)", "address": "с.Часлівці", "lanlng": {"lat": 48.5339392, "lng": 22.3065899}}, {"title": "Замок (мур.)", "address": "с.Невицьке", "lanlng": {"lat": 48.67699229999999, "lng": 22.3927591}}, {"title": "Замок (мур.)", "address": "смт.Середнє", "lanlng": {"lat": 48.5412136, "lng": 22.5089067}}, {"title": "Костел (мур.)", "address": "с.Струмківка", "lanlng": {"lat": 48.5193062, "lng": 22.2622106}}]}, {"address": "Хустський район", "locations": []}, {"address": "м. Хуст", "locations": [{"title": "Руїни замку (мур.)", "address": "", "lanlng": {"lat": 48.17346329999999, "lng": 23.2972476}}, {"title": "Єлизаветинський костел (мур.)", "address": "", "lanlng": {"lat": 48.17346329999999, "lng": 23.2972476}}, {"title": "Миколаївська церква (дер.)", "address": "с.Данилове", "lanlng": {"lat": 48.1461542, "lng": 23.454923}}, {"title": "Дзвіниця Миколаївської церкви (дер.)", "address": "с.Данилове", "lanlng": {"lat": 48.1461542, "lng": 23.454923}}, {"title": "Михайлівська церква (дер.)", "address": "с.Крайникове", "lanlng": {"lat": 48.1189067, "lng": 23.441343}}, {"title": "Дзвіниця Михайлівської церкви (дер.)", "address": "с.Крайникове", "lanlng": {"lat": 48.1189067, "lng": 23.441343}}, {"title": "Церква Св.Параскеви (дер.)", "address": "с.Олександрівка", "lanlng": {"lat": 48.17346329999999, "lng": 23.2972476}}, {"title": "Дзвіниця церкви Св.Параскеви (дер.)", "address": "с.Олександрівка", "lanlng": {"lat": 48.17346329999999, "lng": 23.2972476}}, {"title": "Миколаївськи церква (дер.)", "address": "с.Сокирниця", "lanlng": {"lat": 48.1204087, "lng": 23.3978165}}, {"title": "Дзвіниця Миколаївської церкви (дер.)", "address": "с.Сокирниця", "lanlng": {"lat": 48.1204087, "lng": 23.3978165}}, {"title": "Церква Різдва Богородиці (дер.) - згоріла", "address": "с.Стеблівка", "lanlng": {"lat": 48.0902024, "lng": 23.4224283}}, {"title": "Дзвіниця церкви Різдва Богородиці (дер.)", "address": "с.Стеблівка", "lanlng": {"lat": 48.0902024, "lng": 23.4224283}}]}]},{"address": "Черкащина", "locations": [{"address": "Городищенський район", "locations": [{"title": "Михайлiвська церква (мур.)", "address": "м.Городище, вул.1-го Травня", "lanlng": {"lat": 49.3095613, "lng": 31.4593558}}]}, {"address": "Драбівський район", "locations": [{"title": "Петропавлiвська церква (мур.)", "address": "с.Мойсiвка", "lanlng": {"lat": 49.9546562, "lng": 32.1508844}}]}, {"address": "Звенигородський район", "locations": [{"title": "Садиба кн.В.В.Голiциної (змiш.)", "address": "с.Козацьке", "lanlng": {"lat": 49.0989454, "lng": 31.1466229}}, {"title": "Будинок управляючого (дер.)", "address": "с.Козацьке", "lanlng": {"lat": 49.0989454, "lng": 31.1466229}}, {"title": "Дворовий будинок (мур.)", "address": "с.Козацьке", "lanlng": {"lat": 49.0989454, "lng": 31.1466229}}, {"title": "Парк", "address": "с.Козацьке", "lanlng": {"lat": 49.0989454, "lng": 31.1466229}}]}, {"address": "Золотоніський район", "locations": []}, {"address": "м. Золотоноша", "locations": [{"title": "Красногiрський Спасо-Преображенський монастир (мур.)", "address": "хут.Бакалiвка", "lanlng": {"lat": 49.6617919, "lng": 32.0477111}}, {"title": "Спасо-Преображенсь- кий собор (мур.)", "address": "хут.Бакалiвка", "lanlng": {"lat": 49.6617919, "lng": 32.0477111}}, {"title": "Покровська церква (мур.)", "address": "хут.Бакалiвка", "lanlng": {"lat": 49.6617919, "lng": 32.0477111}}, {"title": "Келiї (мур.)", "address": "хут.Бакалiвка", "lanlng": {"lat": 49.6617919, "lng": 32.0477111}}, {"title": "Троїцька церква (мур.)", "address": "с.Гельмязiв", "lanlng": {"lat": 49.6617919, "lng": 32.0477111}}, {"title": "Троїцька церква (дер.)", "address": "с.Драбiвцi", "lanlng": {"lat": 49.6617919, "lng": 32.0477111}}, {"title": "Миколаївська церква (дер.)", "address": "с.Драбiвцi", "lanlng": {"lat": 49.6617919, "lng": 32.0477111}}]}, {"address": "Кам'янський район", "locations": []}, {"address": "м. Кам'янка", "locations": [{"title": "Садиба Давидових", "address": "", "lanlng": {"lat": 49.0306474, "lng": 32.1150933}}, {"title": "Головний будинок (змiш.)", "address": "", "lanlng": {"lat": 49.0306474, "lng": 32.1150933}}, {"title": "Водяний млин (мур.)", "address": "", "lanlng": {"lat": 49.0306474, "lng": 32.1150933}}, {"title": "Грот (мур.)", "address": "", "lanlng": {"lat": 49.0306474, "lng": 32.1150933}}, {"title": "Парк", "address": "", "lanlng": {"lat": 49.0306474, "lng": 32.1150933}}, {"title": "Церква Успiння Богородицi (дер.)", "address": "с.Жаботин", "lanlng": {"lat": 49.1568435, "lng": 32.1526398}}, {"title": "Церква Св.Олександри (мур.)", "address": "с.Лебедiвка", "lanlng": {"lat": 49.03162769999999, "lng": 31.9623528}}]}, {"address": "Канівський район", "locations": [{"title": "Собор Св.Георгiя (Успiн-ня Богородиці) (мур.)", "address": "м.Канiв", "lanlng": {"lat": 49.751033, "lng": 31.4697}}, {"title": "Комплекс Шевченкiвсько-го нацiонального заповiдника (мур.)", "address": "м.Канiв, Тарасова гора", "lanlng": {"lat": 49.73149, "lng": 31.5156953}}]}, {"address": "Катеринопільський район", "locations": [{"title": "Церква Св.Димитрiя (По-крова Богородицi) (дер.)", "address": "смт.Єрки", "lanlng": {"lat": 48.9802367, "lng": 31.0021144}}]}, {"address": "Корсунь-Шевченківський район", "locations": []}, {"address": "м. Корсунь-Шевченківський", "locations": [{"title": "Садиба Лопухiних", "address": "вул.Острiв Коцюбинського, 4", "lanlng": {"lat": 49.41581739999999, "lng": 31.26554489999999}}, {"title": "Палац (мур.)", "address": "вул.Острiв Коцюбинського, 4", "lanlng": {"lat": 49.41581739999999, "lng": 31.26554489999999}}, {"title": "Брама (мур.)", "address": "вул.Острiв Коцюбинського, 4", "lanlng": {"lat": 49.41581739999999, "lng": 31.26554489999999}}, {"title": "Флiгель (мур.)", "address": "вул.Острiв Коцюбинського, 4", "lanlng": {"lat": 49.41581739999999, "lng": 31.26554489999999}}, {"title": "Швейцарський будиночок (дер.)", "address": "вул.Острiв Коцюбинського, 4", "lanlng": {"lat": 49.41581739999999, "lng": 31.26554489999999}}, {"title": "Спасо-Преображенська церква (дер.)", "address": "с.Кiрове", "lanlng": {"lat": 49.48053969999999, "lng": 31.3337116}}]}, {"address": "М а н ь к і в с ь к и й   р -н", "locations": []}, {"address": "Смілянський район", "locations": []}, {"address": "м. Сміла", "locations": [{"title": "Успенський костел (мур.)", "address": "вул.Черкаська, 33", "lanlng": {"lat": 49.227717, "lng": 31.8522329}}]}, {"address": "Тальнівський район", "locations": []}, {"address": "м. Тальне", "locations": [{"title": "Мисливський замок(мур.)", "address": "вул.Радянська, 48", "lanlng": {"lat": 48.887593, "lng": 30.7044131}}]}, {"address": "Уманський район", "locations": []}, {"address": "м. Умань", "locations": [{"title": "Костел Успiння Богородицi (мур.)", "address": "вул.Коломенська, 2", "lanlng": {"lat": 48.7494492, "lng": 30.2187185}}, {"title": "Парк \"Софiївка\" з ком-плексом водойм, парко-вих будiвель, cпоруд, скульптур", "address": "вул.К.Маркса, 55", "lanlng": {"lat": 48.7532264, "lng": 30.2389913}}, {"title": "Торговi ряди (мур.)", "address": "вул.Радянська, 47", "lanlng": {"lat": 48.74417529999999, "lng": 30.2311816}}, {"title": "Троїцька церква (дер.)", "address": "с.Пугачiвка", "lanlng": {"lat": 48.839026, "lng": 30.3108928}}]}, {"address": "Христинівський район", "locations": [{"title": "Парк та парковi споруди", "address": "с.Синиця", "lanlng": {"lat": 48.6923632, "lng": 30.07308859999999}}, {"title": "Огорожа з в'їзною брамою (мур.)", "address": "с.Синиця", "lanlng": {"lat": 48.6923632, "lng": 30.07308859999999}}, {"title": "Мiст (мур.)", "address": "с.Синиця", "lanlng": {"lat": 48.6923632, "lng": 30.07308859999999}}, {"title": "Будинок управителя (мур.)", "address": "с.Синиця", "lanlng": {"lat": 48.6923632, "lng": 30.07308859999999}}, {"title": "Флiгель (мур.)", "address": "с.Синиця", "lanlng": {"lat": 48.6923632, "lng": 30.07308859999999}}, {"title": "Парк та озеро з 4 островами", "address": "с.Синиця", "lanlng": {"lat": 48.6923632, "lng": 30.07308859999999}}]}, {"address": "Черкаський район", "locations": [{"title": "Церква Св.Миколи (дер.)", "address": "c.Думанцi", "lanlng": {"lat": 49.2552207, "lng": 32.1990127}}, {"title": "Спасо-Преображенська церква (мур.)", "address": "с.Мошни", "lanlng": {"lat": 49.5333605, "lng": 31.7276143}}]}, {"address": "Чигиринський район", "locations": []}, {"address": "м. Чигирин", "locations": [{"title": "Замок Б.Хмельницького- П.Дорошенка (мур.)", "address": "Богданова Гора", "lanlng": {"lat": 49.0780614, "lng": 32.6571232}}, {"title": "Троїцька церква Мотро-нинського монастиря (мур.)", "address": "с.Мельники", "lanlng": {"lat": 49.0730544, "lng": 32.6617808}}, {"title": "Iллiнська церква (мур.)", "address": "с.Суботiв", "lanlng": {"lat": 49.0917111, "lng": 32.5448876}}]}, {"address": "Шполянський район", "locations": []}, {"address": "м. Шпола", "locations": [{"title": "Садиба (мур.)", "address": "вул.Комiнтернiвсь-ка, 12", "lanlng": {"lat": 48.9969392, "lng": 31.4022422}}, {"title": "Палац (мур.)", "address": "вул.Комiнтернiвсь-ка, 12", "lanlng": {"lat": 48.9969392, "lng": 31.4022422}}, {"title": "Флiгель (мур.)", "address": "вул.Комiнтернiвсь-ка, 12", "lanlng": {"lat": 48.9969392, "lng": 31.4022422}}, {"title": "Парк", "address": "вул.Комiнтернiвсь-ка, 12", "lanlng": {"lat": 48.9969392, "lng": 31.4022422}}, {"title": "Церква Покрова Богородицi (мур.)", "address": "с.Бурти", "lanlng": {"lat": 49.13105909999999, "lng": 31.444483}}, {"title": "Спасо-Преображенська церква (мур.)", "address": "с.Лебедин", "lanlng": {"lat": 48.96480649999999, "lng": 31.52672639999999}}, {"title": "Дзвiниця Лебединського Миколаївського монастиря (мур.)", "address": "с.Лебедин", "lanlng": {"lat": 48.96480649999999, "lng": 31.52672639999999}}, {"title": "Вознесенська церква (мур.)", "address": "с.Матусів", "lanlng": {"lat": 49.0478816, "lng": 31.557125}}, {"title": "Найменування памятки", "address": "Місцезнаходження", "lanlng": {"lat": 48.9969392, "lng": 31.4022422}}]}, {"address": "Городищенський район", "locations": [{"title": "Успенська церква", "address": "с.В’язівок", "lanlng": {"lat": 49.1711549, "lng": 31.4091895}}, {"title": "могила сестри Кобзаря Катерини Шевченко", "address": "с.Зелена Діброва", "lanlng": {"lat": 49.13155829999999, "lng": 31.2057759}}, {"title": "Маєток Симиренків (будинок, 1855, церква, парк, могила Л.Симиренко (1920)", "address": "с.Мліїв", "lanlng": {"lat": 49.32776639999999, "lng": 31.5185472}}, {"title": "Церква", "address": "с.Набоків", "lanlng": {"lat": 49.3322961, "lng": 31.4333678}}, {"title": "Церква св. Миколая", "address": "с.Орловець", "lanlng": {"lat": 49.2282457, "lng": 31.5819388}}, {"title": "Садиба графа Орлова", "address": "с.Орловець", "lanlng": {"lat": 49.2282457, "lng": 31.5819388}}, {"title": "Церква", "address": "с.Хлистунівка", "lanlng": {"lat": 49.2162683, "lng": 31.4455126}}]}, {"address": "Драбівський район", "locations": [{"title": "Петропавлівська церква", "address": "с.Великий Хутір", "lanlng": {"lat": 49.8682178, "lng": 32.1257829}}, {"title": "Парк", "address": "смт.Драбів", "lanlng": {"lat": 49.573465, "lng": 32.083121}}]}, {"address": "Жашківський район", "locations": [{"title": "Дмитрівська церква", "address": "с.Конельські Хутори", "lanlng": {"lat": 49.0359287, "lng": 30.04529449999999}}]}, {"address": "Звенигородський район", "locations": [{"title": "Церква св. Юрія", "address": "с.Мизинівка", "lanlng": {"lat": 49.1210477, "lng": 30.8468931}}, {"title": "Церква Івана Богослова", "address": "с.Стебне", "lanlng": {"lat": 49.0257382, "lng": 30.9615304}}]}, {"address": "Золотоніський район", "locations": [{"title": "Церква св. Параскеви", "address": "с.Антипівка", "lanlng": {"lat": 49.72309079999999, "lng": 32.060891}}, {"title": "Успенська церква", "address": "м. Золотоноша", "lanlng": {"lat": 49.6617919, "lng": 32.0477111}}, {"title": "Церква св. Миколая", "address": "с.Скориківка", "lanlng": {"lat": 49.8124785, "lng": 32.0847977}}]}, {"address": "Кам‘янський район", "locations": [{"title": "Церква Різдва Богородиці", "address": "с.Вербівка", "lanlng": {"lat": 48.9990276, "lng": 31.9724964}}, {"title": "Церква", "address": "с.Грушківка", "lanlng": {"lat": 49.08985029999999, "lng": 32.2050054}}, {"title": "Церква св. Михайла", "address": "с.Михайлівка", "lanlng": {"lat": 49.1189687, "lng": 32.0751462}}, {"title": "Церква Богородиці", "address": "с.Ребедайлівка", "lanlng": {"lat": 49.0746265, "lng": 32.1047312}}]}, {"address": "Канівський район", "locations": [{"title": "Церква", "address": "с.Прохорівка", "lanlng": {"lat": 49.7109687, "lng": 31.5998065}}]}, {"address": "Катеринопільський район", "locations": [{"title": "Церква Івана Богослова", "address": "с.Суха Калигірка", "lanlng": {"lat": 48.81529, "lng": 31.1769736}}]}, {"address": "Корсунь–Шевченківський район", "locations": [{"title": "Хрестовоздвиженська церква", "address": "с.Кошмак", "lanlng": {"lat": 49.37504149999999, "lng": 31.2914693}}, {"title": "Георгіївська церква", "address": "с.Тараща", "lanlng": {"lat": 49.347264, "lng": 31.1215659}}]}, {"address": "Маньківський район", "locations": [{"title": "Параскевська церква", "address": "с.Тимошівка", "lanlng": {"lat": 48.9950456, "lng": 30.3985561}}]}, {"address": "Монастерищенський район", "locations": [{"title": "Садибний будинок", "address": "с.Дібрівка", "lanlng": {"lat": 48.9593531, "lng": 29.7312614}}, {"title": "Костел", "address": "м. Монастирище", "lanlng": {"lat": 48.9965372, "lng": 29.7999327}}, {"title": "Замок-палац Даховських, парк", "address": "с.Леськове", "lanlng": {"lat": 48.9956165, "lng": 29.8761848}}, {"title": "Покровська церква", "address": "с.Летичівка", "lanlng": {"lat": 49.011027, "lng": 29.8073275}}, {"title": "Церква", "address": "с.Халаїдове", "lanlng": {"lat": 48.93427699999999, "lng": 29.7467151}}]}, {"address": "Смілянський район", "locations": [{"title": "Церква Вознесіння", "address": "с.Костянтинівка", "lanlng": {"lat": 49.2229767, "lng": 31.75584599999999}}, {"title": "Церква Покрови", "address": "с.Мельниківка", "lanlng": {"lat": 49.1662776, "lng": 31.6655114}}, {"title": "Церква св. Трійці", "address": "с.Сунки", "lanlng": {"lat": 49.2223864, "lng": 32.0048518}}, {"title": "Церква св. Дмитра", "address": "с.Тернівка", "lanlng": {"lat": 49.1426597, "lng": 31.8481219}}]}]},{"address": "Херсонщина", "locations": [{"address": "м. Херсон", "locations": [{"title": "Арсенал (мур.)", "address": "вул.Перекопська, 10", "lanlng": {"lat": 46.6384734, "lng": 32.6261357}}, {"title": "Очаківська південна брама фортеці (мур.)", "address": "вул.Перекопська, 13", "lanlng": {"lat": 46.6389429, "lng": 32.6253907}}, {"title": "Московська (Петербурзька) північна брама фортеці (мур.)", "address": "вул.Перекопська, 13", "lanlng": {"lat": 46.6389429, "lng": 32.6253907}}, {"title": "Катерининський собор (мур.)", "address": "вул.Перекопська, 13", "lanlng": {"lat": 46.6389429, "lng": 32.6253907}}, {"title": "Дзвіниця Катеринин-ського собору (мур.)", "address": "вул.Перекопська, 13", "lanlng": {"lat": 46.6389429, "lng": 32.6253907}}, {"title": "Греко-Софіївська церква (мур.)", "address": "вул.Червонофлотська, 13", "lanlng": {"lat": 46.6287276, "lng": 32.6154962}}, {"title": "Святодухівський собор із дзвіницею (мур.)", "address": "вул.Декабристів, 36", "lanlng": {"lat": 46.6345093, "lng": 32.6062671}}, {"title": "Житловий будинок (мур.)", "address": "вул.Комсомольська, 14", "lanlng": {"lat": 46.6331257, "lng": 32.6109443}}, {"title": "Житловий будинок (мур.)", "address": "вул.Комсомольська, 23", "lanlng": {"lat": 46.6313865, "lng": 32.61013450000001}}, {"title": "Житловий будинок (дім віце-адмірала Сенявіна) (мур.)", "address": "вул.Комсомольська, 36", "lanlng": {"lat": 46.6313915, "lng": 32.6061019}}, {"title": "Резиденція губернатора (мур.)", "address": "вул.Перекопська, 4/14", "lanlng": {"lat": 46.6370175, "lng": 32.6232791}}, {"title": "Миколаївська церква (мур.)", "address": "вул.Доброхотова, 31", "lanlng": {"lat": 46.6355842, "lng": 32.58897040000001}}, {"title": "Бібліотека (мур.)", "address": "вул.21 Січня, 24", "lanlng": {"lat": 46.6321377, "lng": 32.6098236}}, {"title": "Житловий будинок (мур.)", "address": "вул.Червонофлотська, 1", "lanlng": {"lat": 46.6293477, "lng": 32.6193481}}, {"title": "Складська споруда (мур.)", "address": "вул. Червонофлотська, 27", "lanlng": {"lat": 46.6277968, "lng": 32.6121562}}, {"title": "Лікарня (мур.)", "address": "пр.Ушакова, 67", "lanlng": {"lat": 46.6469066, "lng": 32.6096803}}, {"title": "Пам'ятник Джону Говарду (мур.)", "address": "пр.Ушакова", "lanlng": {"lat": 46.6419303, "lng": 32.6131578}}]}, {"address": "м. НоваКаховка", "locations": [{"title": "Корсунський монастир (мур.) :", "address": "", "lanlng": {"lat": 46.75152509999999, "lng": 33.3678207}}, {"title": "Дмитрівська церква (мур.)", "address": "", "lanlng": {"lat": 46.75152509999999, "lng": 33.3678207}}, {"title": "Трапезна (мур.)", "address": "", "lanlng": {"lat": 46.75152509999999, "lng": 33.3678207}}, {"title": "Центральна брама (мур.)", "address": "", "lanlng": {"lat": 46.75152509999999, "lng": 33.3678207}}, {"title": "Західна брама (мур.)", "address": "", "lanlng": {"lat": 46.75152509999999, "lng": 33.3678207}}, {"title": "Північно-східна брама (мур.)", "address": "", "lanlng": {"lat": 46.75152509999999, "lng": 33.3678207}}, {"title": "Мури (мур.)", "address": "", "lanlng": {"lat": 46.75152509999999, "lng": 33.3678207}}]}, {"address": "Бериславський район", "locations": [{"title": "Введенська церква (мур.)", "address": "м.Берислав, вул.Садова", "lanlng": {"lat": 46.8433183, "lng": 33.4273644}}, {"title": "Григорівський Біщюков монастир (мур.):", "address": "с.Червоний Маяк", "lanlng": {"lat": 46.9601597, "lng": 33.6015497}}, {"title": "Мури (мур.)", "address": "с.Червоний Маяк", "lanlng": {"lat": 46.9601597, "lng": 33.6015497}}, {"title": "Башта північно-східна (мур.)", "address": "с.Червоний Маяк", "lanlng": {"lat": 46.9601597, "lng": 33.6015497}}, {"title": "Башта південно-східна (мур.)", "address": "с.Червоний Маяк", "lanlng": {"lat": 46.9601597, "lng": 33.6015497}}, {"title": "Башта (мур.)", "address": "с.Червоний Маяк", "lanlng": {"lat": 46.9601597, "lng": 33.6015497}}, {"title": "Покровська церква (мур.)", "address": "с.Червоний Маяк", "lanlng": {"lat": 46.9601597, "lng": 33.6015497}}, {"title": "Брама (мур.)", "address": "с.Червоний Маяк", "lanlng": {"lat": 46.9601597, "lng": 33.6015497}}]}]},{"address": "Чернігівщина", "locations": [{"address": "м. Чернігів", "locations": [{"title": "Спасо-Преображенський собор (мур.)", "address": "Вал", "lanlng": {"lat": 51.4893951, "lng": 31.3066558}}, {"title": "Борисоглiбський собор (мур.)", "address": "Вал", "lanlng": {"lat": 51.4893951, "lng": 31.3066558}}, {"title": "Колегiум (мур.)", "address": "вул.К.Маркса, 1", "lanlng": {"lat": 51.4982, "lng": 31.28934989999999}}, {"title": "Будинок полкової канцелярiї (мур.)", "address": "Вал", "lanlng": {"lat": 51.4893951, "lng": 31.3066558}}, {"title": "П'ятницька церква (мур.)", "address": "вул.Свердлова, 3", "lanlng": {"lat": 51.4937723, "lng": 31.3031415}}, {"title": "Катерининська церква (мур.)", "address": "проспект Миру", "lanlng": {"lat": 51.4982, "lng": 31.28934989999999}}, {"title": "Єлецький монастир (мур.)", "address": "вул.Пролетарська, 1", "lanlng": {"lat": 51.4982, "lng": 31.28934989999999}}, {"title": "Успенський собор (мур.)", "address": "вул.Пролетарська, 1", "lanlng": {"lat": 51.4982, "lng": 31.28934989999999}}, {"title": "Дзвiниця (мур.)", "address": "вул.Пролетарська, 1", "lanlng": {"lat": 51.4982, "lng": 31.28934989999999}}, {"title": "Пiвнiчнi келiї (мур.)", "address": "вул.Пролетарська, 1", "lanlng": {"lat": 51.4982, "lng": 31.28934989999999}}, {"title": "Схiднi келiї (мур.)", "address": "вул.Пролетарська, 1", "lanlng": {"lat": 51.4982, "lng": 31.28934989999999}}, {"title": "Пiвденно-захiднi келiї (мур.)", "address": "вул.Пролетарська, 1", "lanlng": {"lat": 51.4982, "lng": 31.28934989999999}}, {"title": "Мури та брами (мур.)", "address": "вул.Пролетарська, 1", "lanlng": {"lat": 51.4982, "lng": 31.28934989999999}}, {"title": "Будинок Феодосiя (дер.)", "address": "вул.Пролетарська, 1", "lanlng": {"lat": 51.4982, "lng": 31.28934989999999}}, {"title": "Комплекс споруд Iллiн-ського монастиря (мур.)", "address": "вул.Г.Успенського, 33", "lanlng": {"lat": 51.4773234, "lng": 31.2836061}}, {"title": "Iллiнська церква (мур.)", "address": "вул.Г.Успенського, 33", "lanlng": {"lat": 51.4773234, "lng": 31.2836061}}, {"title": "Дзвiниця (змiш.)", "address": "вул.Г.Успенського, 33", "lanlng": {"lat": 51.4773234, "lng": 31.2836061}}, {"title": "Печери, пiдземнi церкви та iншi пiдземнi споруди (мур.)", "address": "вул.Г.Успенського, 33", "lanlng": {"lat": 51.4773234, "lng": 31.2836061}}, {"title": "Комплекс споруд Троїць-кого монастиря (мур.)", "address": "вул.Толстого, 92-Е", "lanlng": {"lat": 51.4782519, "lng": 31.2799494}}, {"title": "Троїцький собор (мур.)", "address": "вул.Толстого, 92-Е", "lanlng": {"lat": 51.4782519, "lng": 31.2799494}}, {"title": "Дзвiниця (мур.)", "address": "вул.Толстого, 92-Е", "lanlng": {"lat": 51.4782519, "lng": 31.2799494}}, {"title": "Введенська церква (мур.)", "address": "вул.Толстого, 92-Е", "lanlng": {"lat": 51.4782519, "lng": 31.2799494}}, {"title": "Пiвнiчно-схiднi келiї та пекарня (мур.)", "address": "вул.Толстого, 92-Е", "lanlng": {"lat": 51.4782519, "lng": 31.2799494}}, {"title": "Пiвденнi келiї (мур.)", "address": "вул.Толстого, 92-Е", "lanlng": {"lat": 51.4782519, "lng": 31.2799494}}, {"title": "Пiвденно-захiднi келiї (мур.)", "address": "вул.Толстого, 92-Е", "lanlng": {"lat": 51.4782519, "lng": 31.2799494}}, {"title": "Будинок архiєрея (мур.)", "address": "вул.Толстого, 92-Е", "lanlng": {"lat": 51.4782519, "lng": 31.2799494}}, {"title": "Iллiнська брама (мур.)", "address": "вул.Толстого, 92-Е", "lanlng": {"lat": 51.4782519, "lng": 31.2799494}}, {"title": "Мури з брамами та баштами (мур.)", "address": "вул.Толстого, 92-Е", "lanlng": {"lat": 51.4782519, "lng": 31.2799494}}, {"title": "Будинок губернатора (мур.)", "address": "вул.Горького, 4", "lanlng": {"lat": 51.4891209, "lng": 31.3094225}}, {"title": "Будинок архiєпископа (мур.)", "address": "вул.Фрунзе, 2", "lanlng": {"lat": 51.4992477, "lng": 31.2953205}}, {"title": "Воскресенська церква (мур.)", "address": "вул.Комсомольська, 36", "lanlng": {"lat": 51.4982, "lng": 31.28934989999999}}, {"title": "Дзвiниця Воскресенської церкви (мур.)", "address": "вул.Комсомольська, 36", "lanlng": {"lat": 51.4982, "lng": 31.28934989999999}}]}, {"address": "Бахмацький район", "locations": [{"title": "Палац К.Розумовсського (мур.)", "address": "смт.Батурин, вул.Набережна, 1", "lanlng": {"lat": 51.34125040000001, "lng": 32.8797802}}, {"title": "Воскресенська церква (мур.)", "address": "смт.Батурин", "lanlng": {"lat": 51.34125040000001, "lng": 32.8797802}}, {"title": "Будинок Кочубея (мур.)", "address": "смт.Батурин, вул.Ленiна, 70", "lanlng": {"lat": 51.34125040000001, "lng": 32.8797802}}, {"title": "Крупицько-Батуринський монастир (мур.)", "address": "с.Осiч", "lanlng": {"lat": 51.4262646, "lng": 32.8105687}}, {"title": "Дзвiниця (мур.)", "address": "с.Осiч", "lanlng": {"lat": 51.4262646, "lng": 32.8105687}}, {"title": "Спасо-Преображенська трапезна церква (мур.)", "address": "с.Осiч", "lanlng": {"lat": 51.4262646, "lng": 32.8105687}}, {"title": "Корпус келiй (мур.)", "address": "с.Осiч", "lanlng": {"lat": 51.4262646, "lng": 32.8105687}}, {"title": "Садиба Кочубея (мур.)", "address": "с.Тиниця, вул.Матросова, 3", "lanlng": {"lat": 51.18483190000001, "lng": 32.8415176}}, {"title": "Будинок Кочубея (мур.)", "address": "с.Тиниця, вул.Матросова, 3", "lanlng": {"lat": 51.18483190000001, "lng": 32.8415176}}, {"title": "Парк", "address": "с.Тиниця, вул.Матросова, 3", "lanlng": {"lat": 51.18483190000001, "lng": 32.8415176}}, {"title": "Скарбниця (мур.)", "address": "с.Тиниця, вул.Матросова, 3", "lanlng": {"lat": 51.18483190000001, "lng": 32.8415176}}]}, {"address": "Борзнянський район", "locations": [{"title": "Троїцька церква (мур.)", "address": "с.Новi Млини", "lanlng": {"lat": 51.4209604, "lng": 32.7009029}}]}, {"address": "Г о р о д н я н с ь к и й   р- н", "locations": [{"title": "Михайлiвська церква (мур.)", "address": "с.Великий Листвен", "lanlng": {"lat": 51.770067, "lng": 31.5001101}}]}, {"address": "Ічнянський район", "locations": [{"title": "Комплек споруд садиби \"Качанiвка\"", "address": "с-ще Качанiвка", "lanlng": {"lat": 50.8387697, "lng": 32.6591911}}, {"title": "Палац (мур.)", "address": "с-ще Качанiвка", "lanlng": {"lat": 50.8387697, "lng": 32.6591911}}, {"title": "Флiгель пiвнiчний (мур.)", "address": "с-ще Качанiвка", "lanlng": {"lat": 50.8387697, "lng": 32.6591911}}, {"title": "Флiгель пiвденний (мур.)", "address": "с-ще Качанiвка", "lanlng": {"lat": 50.8387697, "lng": 32.6591911}}, {"title": "Вежа (мур.)", "address": "с-ще Качанiвка", "lanlng": {"lat": 50.8387697, "lng": 32.6591911}}, {"title": "Служби (мур.)", "address": "с-ще Качанiвка", "lanlng": {"lat": 50.8387697, "lng": 32.6591911}}, {"title": "Служби (мур.)", "address": "с-ще Качанiвка", "lanlng": {"lat": 50.8387697, "lng": 32.6591911}}, {"title": "Павiльйон Глiнки (мур.)", "address": "с-ще Качанiвка", "lanlng": {"lat": 50.8387697, "lng": 32.6591911}}, {"title": "Георгiївська церква (мур.)", "address": "с-ще Качанiвка", "lanlng": {"lat": 50.8387697, "lng": 32.6591911}}, {"title": "Господарська будiвля (мур.)", "address": "с-ще Качанiвка", "lanlng": {"lat": 50.8387697, "lng": 32.6591911}}, {"title": "Парк", "address": "с-ще Качанiвка", "lanlng": {"lat": 50.8387697, "lng": 32.6591911}}, {"title": "Дендропарк", "address": "с. Тростянець", "lanlng": {"lat": 50.77974889999999, "lng": 32.8096719}}]}, {"address": "Козелецький район", "locations": []}, {"address": "смт.Козелець", "locations": [{"title": "Собор Рiздва Богородицi (мур.)", "address": "вул.Даневича, 1", "lanlng": {"lat": 50.9131655, "lng": 31.1168458}}, {"title": "Дзвiниця собору Рiздва Богородицi (мур.)", "address": "вул.Даневича, 1", "lanlng": {"lat": 50.9131655, "lng": 31.1168458}}, {"title": "Будинок полкової канцелярiї (мур.)", "address": "", "lanlng": {"lat": 50.9131655, "lng": 31.1168458}}, {"title": "Миколаївська церква (мур.)", "address": "вул.Журавльова, 2-а", "lanlng": {"lat": 50.90791189999999, "lng": 31.1175875}}, {"title": "Садиба \"Покорщина\"", "address": "вул.Свердлова, 41", "lanlng": {"lat": 50.9131655, "lng": 31.1168458}}, {"title": "Головний будинок (дер.)", "address": "вул.Свердлова, 41", "lanlng": {"lat": 50.9131655, "lng": 31.1168458}}, {"title": "Кам'яниця (мур.)", "address": "вул.Свердлова, 41", "lanlng": {"lat": 50.9131655, "lng": 31.1168458}}, {"title": "Флiгель (дер.)", "address": "вул.Свердлова, 41", "lanlng": {"lat": 50.9131655, "lng": 31.1168458}}, {"title": "Вознесенська церква (мур.)", "address": "вул.Комсомольська", "lanlng": {"lat": 50.9131655, "lng": 31.1168458}}, {"title": "Георгiївська церква (мур.)", "address": "с.Данiвка", "lanlng": {"lat": 50.9131655, "lng": 31.1168458}}, {"title": "Трьохсвятительська церква (мур.)", "address": "с.Лемешi", "lanlng": {"lat": 50.987634, "lng": 31.1381339}}, {"title": "Комплекс Михайлiвської церкви (мур.)", "address": "с.Петрiвське", "lanlng": {"lat": 50.9131655, "lng": 31.1168458}}, {"title": "Михайлiвська церква (мур.)", "address": "с.Петрiвське", "lanlng": {"lat": 50.9131655, "lng": 31.1168458}}, {"title": "Дзвiниця (мур.)", "address": "с.Петрiвське", "lanlng": {"lat": 50.9131655, "lng": 31.1168458}}, {"title": "Огорожа з вежами (мур.)", "address": "с.Петрiвське", "lanlng": {"lat": 50.9131655, "lng": 31.1168458}}, {"title": "Юр'їва божниця (мур.)", "address": "с.Старогородка (м.Остер)", "lanlng": {"lat": 50.9131655, "lng": 31.1168458}}]}, {"address": "Коропський район", "locations": []}, {"address": "смт.Короп", "locations": [{"title": "Вознесенська церква (мур.)", "address": "", "lanlng": {"lat": 51.5649604, "lng": 32.9549585}}, {"title": "Iллiнська церква (мур.)", "address": "", "lanlng": {"lat": 51.5649604, "lng": 32.9549585}}, {"title": "Палац О.Румянцева- Задунайського (мур.)", "address": "с.Вишеньки", "lanlng": {"lat": 51.6443648, "lng": 33.063588}}, {"title": "Успенська церква (мур.)", "address": "с.Вишеньки", "lanlng": {"lat": 51.6443648, "lng": 33.063588}}, {"title": "Церква Рiздва Богородицi (мур.)", "address": "с.Оболоння", "lanlng": {"lat": 51.6236144, "lng": 32.9375141}}, {"title": "Преображенська церква (мур.)", "address": "с.Райгородок", "lanlng": {"lat": 51.62717139999999, "lng": 33.0991632}}]}, {"address": "Корюківський район", "locations": [{"title": "Покровська церква (мур.)", "address": "с.Жукля", "lanlng": {"lat": 51.8147278, "lng": 32.6624753}}]}, {"address": "Менський район", "locations": [{"title": "Троїцька церква (мур.)", "address": "с.Бiгач", "lanlng": {"lat": 51.4862118, "lng": 31.98576929999999}}, {"title": "Успенська церква (дер.)", "address": "с.Волоскiвцi", "lanlng": {"lat": 51.4862118, "lng": 31.98576929999999}}, {"title": "Миколаївська церква (дер.)", "address": "с.Городище", "lanlng": {"lat": 51.5907197, "lng": 31.97924549999999}}, {"title": "Домницький монастир Рiздва Богородицi (мур.)", "address": "с.Домниця", "lanlng": {"lat": 51.487444, "lng": 31.7863057}}, {"title": "Собор Рiздва Богородицi (мур.)", "address": "с.Домниця", "lanlng": {"lat": 51.487444, "lng": 31.7863057}}, {"title": "Трапезна церква Парас-кеви П'ятницi (мур.)", "address": "с.Домниця", "lanlng": {"lat": 51.487444, "lng": 31.7863057}}, {"title": "Дзвiниця (мур.)", "address": "с.Домниця", "lanlng": {"lat": 51.487444, "lng": 31.7863057}}, {"title": "Покровська церква (дер.)", "address": "с.Дягова", "lanlng": {"lat": 51.5047649, "lng": 32.0642162}}, {"title": "Покровська церква (дер.)", "address": "с.Синявка", "lanlng": {"lat": 51.61278, "lng": 32.0127735}}, {"title": "Троїцька церква (дер.)", "address": "с.Степанiвка", "lanlng": {"lat": 51.5254266, "lng": 32.020469}}, {"title": "Андрiївська церква (мур.)", "address": "с.Стольне", "lanlng": {"lat": 51.51640399999999, "lng": 31.9152991}}]}, {"address": "Ніжинський район", "locations": []}, {"address": "м. Ніжин", "locations": [{"title": "Миколаївський собор (мур.)", "address": "вул.Батюка, 16", "lanlng": {"lat": 51.0466585, "lng": 31.8841159}}, {"title": "Введенський монастир (мур.)", "address": "вул.Авдiївська, 46", "lanlng": {"lat": 51.0377956, "lng": 31.8880994}}, {"title": "Введенський собор (мур.)", "address": "вул.Авдiївська, 46", "lanlng": {"lat": 51.0377956, "lng": 31.8880994}}, {"title": "Дзвiниця (мур.)", "address": "вул.Авдiївська, 46", "lanlng": {"lat": 51.0377956, "lng": 31.8880994}}, {"title": "Корпус келiй (мур.)", "address": "вул.Авдiївська, 46", "lanlng": {"lat": 51.0377956, "lng": 31.8880994}}, {"title": "Комплекс Нiжинського лiцею (мур.)", "address": "вул.Кропив'янського, 2", "lanlng": {"lat": 51.05314380000001, "lng": 31.8815008}}, {"title": "Лiцей (мур.)", "address": "вул.Кропив'янського, 2", "lanlng": {"lat": 51.05314380000001, "lng": 31.8815008}}, {"title": "Будинок служб (мур.)", "address": "вул.Кропив'янського, 2", "lanlng": {"lat": 51.05314380000001, "lng": 31.8815008}}, {"title": "Каретник (мур.)", "address": "вул.Кропив'янського, 2", "lanlng": {"lat": 51.05314380000001, "lng": 31.8815008}}, {"title": "Стайня (мур.)", "address": "вул.Кропив'янського, 2", "lanlng": {"lat": 51.05314380000001, "lng": 31.8815008}}, {"title": "Житловий флiгель (мур.)", "address": "вул.Кропив'янського, 2", "lanlng": {"lat": 51.05314380000001, "lng": 31.8815008}}, {"title": "Грецька Всiхсвятська церква (мур.)", "address": "вул.Гребiнки, 19", "lanlng": {"lat": 51.0494328, "lng": 31.8845296}}, {"title": "Грецька Михайлiвська церква (мур.)", "address": "вул.Гребiнки, 19", "lanlng": {"lat": 51.0494328, "lng": 31.8845296}}, {"title": "Троїцька церква (мур.)", "address": "вул.Гребiнки, 19", "lanlng": {"lat": 51.0494328, "lng": 31.8845296}}, {"title": "Покровська церква (мур.)", "address": "вул.Подвойського,23", "lanlng": {"lat": 51.0486921, "lng": 31.893905}}, {"title": "Благовiщенський монастир (мур.)", "address": "вул.С.Яворського,14", "lanlng": {"lat": 51.0504265, "lng": 31.8829311}}, {"title": "Благовiщенський собор (мур.)", "address": "вул.С.Яворського,14", "lanlng": {"lat": 51.0504265, "lng": 31.8829311}}, {"title": "Петропавлiвська церква з дзвiницею (мур.)", "address": "вул.С.Яворського,14", "lanlng": {"lat": 51.0504265, "lng": 31.8829311}}, {"title": "Корпус iгумена з трапезною (мур.)", "address": "вул.С.Яворського,14", "lanlng": {"lat": 51.0504265, "lng": 31.8829311}}, {"title": "Корпус келiй (мур.)", "address": "вул.С.Яворського,14", "lanlng": {"lat": 51.0504265, "lng": 31.8829311}}, {"title": "Лавки (мур.)", "address": "вул.С.Яворського,14", "lanlng": {"lat": 51.0504265, "lng": 31.8829311}}, {"title": "Церква Iоанна Богослова (мур.)", "address": "вул.Гоголя, 4", "lanlng": {"lat": 51.0536684, "lng": 31.8833192}}, {"title": "Будинок грецького магiстрату (мур.)", "address": "вул.Гребiнки, 21", "lanlng": {"lat": 51.0377956, "lng": 31.8880994}}, {"title": "Миколаївська церква (мур.)", "address": "вул.Подвойсько- го, 23-д", "lanlng": {"lat": 51.0377956, "lng": 31.8880994}}, {"title": "Преображенська церква (мур.)", "address": "вул.Московська, 14", "lanlng": {"lat": 51.052339, "lng": 31.890038}}, {"title": "Житловий будинок (мур.)", "address": "вул.Студентська, 2", "lanlng": {"lat": 51.0380556, "lng": 31.8861111}}, {"title": "Михайлiвська церква (мур.)", "address": "с.Безуглiвка", "lanlng": {"lat": 50.9454844, "lng": 31.99092259999999}}]}, {"address": "Новгород-Сіверський район", "locations": []}, {"address": "м. Новгород-Сіверський", "locations": [{"title": "Спасо-Преображенський монастир", "address": "вул.Пушкiна, 1", "lanlng": {"lat": 52.00928930000001, "lng": 33.2826237}}, {"title": "Спасо-Преображенський собор (мур.)", "address": "вул.Пушкiна, 1", "lanlng": {"lat": 52.00928930000001, "lng": 33.2826237}}, {"title": "Надбрамна дзвiниця мур.)", "address": "вул.Пушкiна, 1", "lanlng": {"lat": 52.00928930000001, "lng": 33.2826237}}, {"title": "Палатний корпус з Петро-павлiвською церквою (мур.)", "address": "вул.Пушкiна, 1", "lanlng": {"lat": 52.00928930000001, "lng": 33.2826237}}, {"title": "Покої настоятеля з Iллiн-ською церквою (мур.)", "address": "вул.Пушкiна, 1", "lanlng": {"lat": 52.00928930000001, "lng": 33.2826237}}, {"title": "Келiї (мур.)", "address": "вул.Пушкiна, 1", "lanlng": {"lat": 52.00928930000001, "lng": 33.2826237}}, {"title": "Бурса (мур.)", "address": "вул.Пушкiна, 1", "lanlng": {"lat": 52.00928930000001, "lng": 33.2826237}}, {"title": "Мури та башти (мур.)", "address": "вул.Пушкiна, 1", "lanlng": {"lat": 52.00928930000001, "lng": 33.2826237}}, {"title": "Микiльська церква (дер.)", "address": "вул.Коротченка, 18", "lanlng": {"lat": 52.0136056, "lng": 33.2581284}}, {"title": "Успенський собор (мур.)", "address": "вул.Р.Люксембург, 3", "lanlng": {"lat": 51.99692100000001, "lng": 33.2643783}}, {"title": "Трiумфальна брама мур.)", "address": "вул.К.Маркса, 34", "lanlng": {"lat": 52.0059632, "lng": 33.2735914}}, {"title": "Торговi ряди (мур.)", "address": "вул.50-рiччя Жовтня, 2, 4", "lanlng": {"lat": 51.99692100000001, "lng": 33.2643783}}, {"title": "Схiдний корпус торгових рядiв (мур.)", "address": "вул.50-рiччя Жовтня, 2", "lanlng": {"lat": 51.99692100000001, "lng": 33.2643783}}, {"title": "Захiдний корпус торгових рядiв (мур.)", "address": "вул.50-рiччя Жовтня, 4", "lanlng": {"lat": 51.99692100000001, "lng": 33.2643783}}, {"title": "Торговi склади (мур.)", "address": "вул.50-рiччя Жовтня, 5", "lanlng": {"lat": 51.99692100000001, "lng": 33.2643783}}, {"title": "Покровська церква (мур.)", "address": "с.Дiгтярiвка", "lanlng": {"lat": 51.92037029999999, "lng": 33.1423016}}]}, {"address": "Прилуцький район", "locations": []}, {"address": "м. Прилуки", "locations": [{"title": "Спасо-Преображенський собор (мур.)", "address": "вул.Шевченка, 1", "lanlng": {"lat": 50.5884714, "lng": 32.3875825}}, {"title": "Полкова скарбниця (мур.)", "address": "вул.Орджонiкiдзе, 25-а", "lanlng": {"lat": 50.5884714, "lng": 32.3875825}}, {"title": "Миколаївська церква (мур.)", "address": "вул.Орджонiкiдзе,16", "lanlng": {"lat": 50.5884714, "lng": 32.3875825}}, {"title": "Церква Рiздва Богородицi (мур.)", "address": "вул.Орджонiкiдзе,16", "lanlng": {"lat": 50.5884714, "lng": 32.3875825}}, {"title": "Густинський монастир", "address": "с.Густиня", "lanlng": {"lat": 50.6391479, "lng": 32.4711707}}, {"title": "Троїцький собор (мур.)", "address": "с.Густиня", "lanlng": {"lat": 50.6391479, "lng": 32.4711707}}, {"title": "Петропавлiвська над-брамна церква (мур.)", "address": "с.Густиня", "lanlng": {"lat": 50.6391479, "lng": 32.4711707}}, {"title": "Воскресенська трапезна церква (мур.)", "address": "с.Густиня", "lanlng": {"lat": 50.6391479, "lng": 32.4711707}}, {"title": "Надбрамна Миколаївська церква-дзвiниця (мур.)", "address": "с.Густиня", "lanlng": {"lat": 50.6391479, "lng": 32.4711707}}, {"title": "Корпус настоятеля (мур.)", "address": "с.Густиня", "lanlng": {"lat": 50.6391479, "lng": 32.4711707}}, {"title": "Готель (мур.)", "address": "с.Густиня", "lanlng": {"lat": 50.6391479, "lng": 32.4711707}}, {"title": "Мури та брами (мур.)", "address": "с.Густиня", "lanlng": {"lat": 50.6391479, "lng": 32.4711707}}, {"title": "Михайлiвська церква (мур.)", "address": "с.Густиня", "lanlng": {"lat": 50.6391479, "lng": 32.4711707}}, {"title": "Преображенська церква (мур.)", "address": "с.Яблунiвка", "lanlng": {"lat": 50.5884714, "lng": 32.3875825}}, {"title": "Дзвiниця Преображен-ської церкви (мур.)", "address": "с.Яблунiвка", "lanlng": {"lat": 50.5884714, "lng": 32.3875825}}]}, {"address": "Ріпкинський район", "locations": [{"title": "Кам'яниця Полуботка (мур.)", "address": "смт.Любеч", "lanlng": {"lat": 51.700259, "lng": 30.6625433}}, {"title": "Спасо-Преображенська церква (мур.)", "address": "смт.Любеч", "lanlng": {"lat": 51.700259, "lng": 30.6625433}}, {"title": "Церква Рiздва Богородицi з дзвiницею (мур.)", "address": "с.Суличiвка", "lanlng": {"lat": 51.7292467, "lng": 31.0591522}}]}, {"address": "Срібнянський район", "locations": [{"title": "Садибний будинок (мур.)", "address": "смт.Дiгтярi", "lanlng": {"lat": 50.5765673, "lng": 32.7675141}}, {"title": "Садиба Галаганiв (дер.)", "address": "с.Сокиринцi", "lanlng": {"lat": 50.7064669, "lng": 32.7883762}}, {"title": "Палац (мур.)", "address": "с.Сокиринцi", "lanlng": {"lat": 50.7064669, "lng": 32.7883762}}, {"title": "Мури та брама (мур.)", "address": "с.Сокиринцi", "lanlng": {"lat": 50.7064669, "lng": 32.7883762}}, {"title": "Стайня (мур.)", "address": "с.Сокиринцi", "lanlng": {"lat": 50.7064669, "lng": 32.7883762}}, {"title": "Альтанка (мур.)", "address": "с.Сокиринцi", "lanlng": {"lat": 50.7064669, "lng": 32.7883762}}, {"title": "Пiвденний флiгель (мур.)", "address": "с.Сокиринцi", "lanlng": {"lat": 50.7064669, "lng": 32.7883762}}, {"title": "Пiвнiчний флiгель (мур.)", "address": "с.Сокиринцi", "lanlng": {"lat": 50.7064669, "lng": 32.7883762}}, {"title": "Оранжерея (мур.)", "address": "с.Сокиринцi", "lanlng": {"lat": 50.7064669, "lng": 32.7883762}}, {"title": "Мiсток (мур.)", "address": "с.Сокиринцi", "lanlng": {"lat": 50.7064669, "lng": 32.7883762}}, {"title": "Парк", "address": "с.Сокиринцi", "lanlng": {"lat": 50.7064669, "lng": 32.7883762}}]}, {"address": "Чернігівський район", "locations": [{"title": "Садиба Лизогуба", "address": "смт.Седнiв", "lanlng": {"lat": 51.6463023, "lng": 31.56168449999999}}, {"title": "Кам'яниця (мур.)", "address": "смт.Седнiв", "lanlng": {"lat": 51.6463023, "lng": 31.56168449999999}}, {"title": "Альтанка (мур.)", "address": "смт.Седнiв", "lanlng": {"lat": 51.6463023, "lng": 31.56168449999999}}, {"title": "Парк", "address": "смт.Седнiв", "lanlng": {"lat": 51.6463023, "lng": 31.56168449999999}}, {"title": "Воскресенська (Рiздва Богородицi) церква (мур.)", "address": "смт.Седнiв", "lanlng": {"lat": 51.6463023, "lng": 31.56168449999999}}, {"title": "Георгiївська церква (дер.)", "address": "смт.Седнiв", "lanlng": {"lat": 51.6463023, "lng": 31.56168449999999}}, {"title": "Троїцька церква (дер.)", "address": "с.Новий Бiлоус", "lanlng": {"lat": 51.5358829, "lng": 31.1863541}}, {"title": "Дзвiниця Троїцької церкви (дер.)", "address": "с.Новий Бiлоус", "lanlng": {"lat": 51.5358829, "lng": 31.1863541}}]}]},{"address": "Тернопілля", "locations": [{"address": "м. Тернопіль", "locations": [{"title": "Старий замок (мур.)", "address": "вул.Замкова, 12", "lanlng": {"lat": 49.5533964, "lng": 25.5876714}}, {"title": "Здвиженська церква (мур.)", "address": "вул.Над Ставом, 16", "lanlng": {"lat": 49.5509846, "lng": 25.5830298}}, {"title": "Церква Воскресіння Христового (мур.)", "address": "вул.Руська, 22", "lanlng": {"lat": 49.5505848, "lng": 25.592367}}, {"title": "Костел монастиря Домініканів (мур.)", "address": "вул.Гетьмана Сагайдачного", "lanlng": {"lat": 49.5526736, "lng": 25.5928912}}, {"title": "Келiї монастиря Домiнiканiв (мур.)", "address": "вул.Гетьмана Сагайдачного", "lanlng": {"lat": 49.5526736, "lng": 25.5928912}}]}, {"address": "Бережанський район", "locations": []}, {"address": "м. Бережани", "locations": [{"title": "Ратуша (мур.)", "address": "пл.Ринок, 1", "lanlng": {"lat": 49.4449069, "lng": 24.938935}}, {"title": "Троїцький собор (мур.)", "address": "пл.Ринок", "lanlng": {"lat": 49.4452133, "lng": 24.9412613}}, {"title": "Миколаївська церква (дер.)", "address": "вул.Шевченка", "lanlng": {"lat": 49.44572369999999, "lng": 24.935789}}, {"title": "Замок (мур.)", "address": "вул.І.Франка", "lanlng": {"lat": 49.4456261, "lng": 24.9454569}}, {"title": "Троїцький замковий кос-тел-усипальниця (мур.)", "address": "вул.І.Франка", "lanlng": {"lat": 49.4456261, "lng": 24.9454569}}, {"title": "Костел Рiздва Дiви Марiї (мур.)", "address": "вул.Лепких, 1", "lanlng": {"lat": 49.44572369999999, "lng": 24.935789}}, {"title": "Дзвіниця костелу Рiздва Дiви Марiї (мур.)", "address": "вул.Лепких, 1", "lanlng": {"lat": 49.44572369999999, "lng": 24.935789}}, {"title": "Миколаївський костел монастиря бернардинів (мур.)", "address": "вул.Ковського, 1", "lanlng": {"lat": 49.4438882, "lng": 24.9361397}}, {"title": "Келії монастиря бернардинiв (мур.)", "address": "вул.Ковського, 1", "lanlng": {"lat": 49.4438882, "lng": 24.9361397}}, {"title": "Костел Успiння Дiви Марiї (мур.)", "address": "с.Біще", "lanlng": {"lat": 49.547985, "lng": 24.9016969}}, {"title": "Мисливський палац з ландшафтним парком (мур.)", "address": "с.Рай, вул.Райська", "lanlng": {"lat": 49.4322808, "lng": 24.9100535}}, {"title": "Церква Петра i Павла (дер.)", "address": "с.Урмань", "lanlng": {"lat": 49.5712441, "lng": 24.9540298}}, {"title": "Дзвіниця церкви Петра i Павла (дер.)", "address": "с.Урмань", "lanlng": {"lat": 49.5712441, "lng": 24.9540298}}]}, {"address": "Борщівський район", "locations": [{"title": "Костел (мур.)", "address": "м.Борщів", "lanlng": {"lat": 48.80060959999999, "lng": 26.0488939}}, {"title": "Парк садиби Сапiгiв", "address": "с.Більче-Золоте", "lanlng": {"lat": 48.77853880000001, "lng": 25.8839189}}, {"title": "Замок (руїни) (мур.)", "address": "с.Висічка", "lanlng": {"lat": 48.7918977, "lng": 25.9903226}}, {"title": "Миколаївська церква (дер.)", "address": "с.Висічка", "lanlng": {"lat": 48.7918977, "lng": 25.9903226}}, {"title": "Дзвіниця Миколаївської церкви (дер.)", "address": "с.Висічка", "lanlng": {"lat": 48.7918977, "lng": 25.9903226}}, {"title": "Вали городища", "address": "с.Дзвенигород", "lanlng": {"lat": 48.5433574, "lng": 26.2827831}}, {"title": "Церква Успiння Дiви Марiї (мур.)", "address": "с.Дзвенигород", "lanlng": {"lat": 48.5433574, "lng": 26.2827831}}, {"title": "Дзвіниця церкви Успiння Дiви Марiї (мур.)", "address": "с.Дзвенигород", "lanlng": {"lat": 48.5433574, "lng": 26.2827831}}, {"title": "Церква Св.Миколи (мур.)", "address": "с.Збручанське", "lanlng": {"lat": 48.6640656, "lng": 26.2725575}}, {"title": "Церква Iоанна Богослова (дер.)", "address": "с.Іване-Пусте", "lanlng": {"lat": 48.6416227, "lng": 26.1828792}}, {"title": "Дзвiниця церкви Iоанна Богослова (дер.)", "address": "с.Іване-Пусте", "lanlng": {"lat": 48.6416227, "lng": 26.1828792}}, {"title": "Замок (руїни) (мур.)", "address": "с.Кривче", "lanlng": {"lat": 48.6975006, "lng": 26.1079092}}, {"title": "Башта південно-східна (мур.)", "address": "с.Кривче", "lanlng": {"lat": 48.6975006, "lng": 26.1079092}}, {"title": "Башта південно-західна (мур.)", "address": "с.Кривче", "lanlng": {"lat": 48.6975006, "lng": 26.1079092}}, {"title": "Замок (руїни) (мур.)", "address": "с.Кривче", "lanlng": {"lat": 48.6975006, "lng": 26.1079092}}, {"title": "Давньослов'янський печерний храм (мур.)", "address": "с.Міжгір'я", "lanlng": {"lat": 48.73231200000001, "lng": 25.8581841}}, {"title": "Здвиженська церква (мур.)", "address": "с.Міжгір'я", "lanlng": {"lat": 48.73231200000001, "lng": 25.8581841}}, {"title": "Келiї Василіанського монастиря (мур.)", "address": "с.Міжгір'я", "lanlng": {"lat": 48.73231200000001, "lng": 25.8581841}}, {"title": "Фортеця Святої Трійці (руїни) (мур.)", "address": "с.Окопи", "lanlng": {"lat": 48.540065, "lng": 26.4272247}}, {"title": "Львiвська брама (мур.)", "address": "с.Окопи", "lanlng": {"lat": 48.540065, "lng": 26.4272247}}, {"title": "Кам'янецька брама (мур.)", "address": "с.Окопи", "lanlng": {"lat": 48.540065, "lng": 26.4272247}}, {"title": "Башта над р.Збруч (мур.)", "address": "с.Окопи", "lanlng": {"lat": 48.540065, "lng": 26.4272247}}, {"title": "Мури (мур.)", "address": "с.Окопи", "lanlng": {"lat": 48.540065, "lng": 26.4272247}}, {"title": "Землянi вали", "address": "с.Окопи", "lanlng": {"lat": 48.540065, "lng": 26.4272247}}, {"title": "Церква Св.Миколи (дер.)", "address": "с.Окопи", "lanlng": {"lat": 48.540065, "lng": 26.4272247}}, {"title": "Дзвіниця церкви Св.Миколи (дер.)", "address": "с.Окопи", "lanlng": {"lat": 48.540065, "lng": 26.4272247}}, {"title": "Замок (руїни) (мур.)", "address": "смт.Скала-Подільська", "lanlng": {"lat": 48.8483211, "lng": 26.1963484}}, {"title": "Замковий палац (мур.)", "address": "смт.Скала-Подільська", "lanlng": {"lat": 48.8483211, "lng": 26.1963484}}, {"title": "Порохова башта (мур.)", "address": "смт.Скала-Подільська", "lanlng": {"lat": 48.8483211, "lng": 26.1963484}}]}, {"address": "Бучацький район", "locations": []}, {"address": "м. Бучач", "locations": []}, {"address": "http://www.geocities.com/buchachtown/", "locations": [{"title": "Ратуша (мур.)", "address": "майдан Волі", "lanlng": {"lat": 49.5520337, "lng": 25.5898008}}, {"title": "Замок (мур.)", "address": "вул.Замкова", "lanlng": {"lat": 49.5524756, "lng": 25.5889832}}, {"title": "Василіанський монастир (мур.)", "address": "вул.Міцкевича, 19", "lanlng": {"lat": 35.7642515, "lng": 10.8112885}}, {"title": "Покровська церква (мур.)", "address": "вул.Галицька, 23", "lanlng": {"lat": 48.9229407, "lng": 24.7097057}}, {"title": "Церква в урочищі Монастирок (руїни)(мур.)", "address": "", "lanlng": {"lat": 48.73231200000001, "lng": 25.8581841}}, {"title": "Замок (мур.)", "address": "с.Підзамочок", "lanlng": {"lat": 49.0778891, "lng": 25.4007312}}]}, {"address": "Гусятинський район", "locations": []}, {"address": "м. Гусятин", "locations": [{"title": "Церква Св.Онуфрія (мур.)", "address": "вул.Наливайка, 14", "lanlng": {"lat": 49.0713673, "lng": 26.208846}}, {"title": "Бернардинський монастир (мур.)", "address": "вул.Гагарiна, 3", "lanlng": {"lat": 49.0789407, "lng": 26.1846466}}, {"title": "Костел (мур.)", "address": "вул.Гагарiна, 3", "lanlng": {"lat": 49.0789407, "lng": 26.1846466}}, {"title": "Монастирські келії (мур.)", "address": "вул.Гагарiна, 3", "lanlng": {"lat": 49.0789407, "lng": 26.1846466}}, {"title": "Синагога (мур.)", "address": "вул.Пушкіна, 15", "lanlng": {"lat": 49.07195189999999, "lng": 26.206535}}]}, {"address": "м. Копичинці", "locations": [{"title": "Церква Воздвиження Чесного Хреста (дер.)", "address": "", "lanlng": {"lat": 49.1037815, "lng": 25.9110602}}, {"title": "Дзвiниця церкви Воздви-ження Чесного Хреста (дер.)", "address": "", "lanlng": {"lat": 49.1037815, "lng": 25.9110602}}, {"title": "Ганнозачатiївська церква (дер.)", "address": "с.Волиця", "lanlng": {"lat": 49.1037815, "lng": 25.9110602}}, {"title": "Дзвiниця Ганнозачатiїв-ської церкви (дер.)", "address": "с.Волиця", "lanlng": {"lat": 49.1037815, "lng": 25.9110602}}, {"title": "Церква Св.Параскеви (дер.)", "address": "с.Козина", "lanlng": {"lat": 49.1037815, "lng": 25.9110602}}, {"title": "Дзвiниця церкви Св.Параскеви (дер.)", "address": "с.Козина", "lanlng": {"lat": 49.1037815, "lng": 25.9110602}}, {"title": "Церква Св.Параскеви (дер.)", "address": "с.Крогулець", "lanlng": {"lat": 49.0992995, "lng": 26.0138845}}, {"title": "Дзвiниця церкви Св.Параскеви (дер.)", "address": "с.Крогулець", "lanlng": {"lat": 49.0992995, "lng": 26.0138845}}, {"title": "Замок (мур.)", "address": "с.Сидорiв", "lanlng": {"lat": 49.1037815, "lng": 25.9110602}}, {"title": "Костел (мур.)", "address": "с.Сидорiв", "lanlng": {"lat": 49.1037815, "lng": 25.9110602}}]}, {"address": "Заліщицький район", "locations": [{"title": "Церква Св.Георгiя (мур.)", "address": "с.Касперівці", "lanlng": {"lat": 48.666526, "lng": 25.8414546}}, {"title": "Церква Успiння Богородицi (мур.)", "address": "с.Касперівці", "lanlng": {"lat": 48.666526, "lng": 25.8414546}}, {"title": "Дзвiниця церкви Успiння Богородицi (змiш.)", "address": "с.Касперівці", "lanlng": {"lat": 48.666526, "lng": 25.8414546}}, {"title": "Церква Св.Миколи (мур.)", "address": "с.Нагiряни", "lanlng": {"lat": 48.8006846, "lng": 25.6113724}}, {"title": "Дзвiниця церкви Св.Миколи (дер.)", "address": "с.Нагiряни", "lanlng": {"lat": 48.8006846, "lng": 25.6113724}}]}, {"address": "Збаразький район", "locations": []}, {"address": "м. Збараж", "locations": [{"title": "Замок (мур.)", "address": "вул.Морозенка, 28", "lanlng": {"lat": 49.6636596, "lng": 25.7880989}}, {"title": "Бернардинський монастир (мур.)", "address": "вул.Незалежності, 8", "lanlng": {"lat": 49.6669762, "lng": 25.7723085}}, {"title": "Костел (мур.)", "address": "вул.Незалежності, 8", "lanlng": {"lat": 49.6669762, "lng": 25.7723085}}, {"title": "Келiї (мур.)", "address": "вул.Незалежності, 8", "lanlng": {"lat": 49.6669762, "lng": 25.7723085}}, {"title": "Дзвiниця (мур.)", "address": "вул.Незалежності, 8", "lanlng": {"lat": 49.6669762, "lng": 25.7723085}}, {"title": "Церква Воскресiння Христового (мур.)", "address": "смт.Вишнiвець", "lanlng": {"lat": 49.6669762, "lng": 25.7723085}}, {"title": "Палацовий комплекс (мур.)", "address": "смт.Вишнiвець", "lanlng": {"lat": 49.6669762, "lng": 25.7723085}}, {"title": "Палац (мур.)", "address": "смт.Вишнiвець", "lanlng": {"lat": 49.6669762, "lng": 25.7723085}}, {"title": "Брами (мур.)", "address": "смт.Вишнiвець", "lanlng": {"lat": 49.6669762, "lng": 25.7723085}}, {"title": "Господарськi флiгелi (мур.)", "address": "смт.Вишнiвець", "lanlng": {"lat": 49.6669762, "lng": 25.7723085}}, {"title": "Парк", "address": "смт.Вишнiвець", "lanlng": {"lat": 49.6669762, "lng": 25.7723085}}, {"title": "Спасо-Преображенська церква (мур.)", "address": "с.Залужжя", "lanlng": {"lat": 49.6714244, "lng": 25.7478915}}, {"title": "Церква Св.Миколи та дзвiниця (мур.)", "address": "с.Залужжя", "lanlng": {"lat": 49.6714244, "lng": 25.7478915}}, {"title": "Дзвiниця церкви Св.Михаїла (дер.)", "address": "с.Колодне", "lanlng": {"lat": 49.7563938, "lng": 25.7179845}}, {"title": "Замок (руїни) (мур.)", "address": "с.Старий Збараж", "lanlng": {"lat": 49.650292, "lng": 25.7449308}}]}, {"address": "Зборівський район", "locations": []}, {"address": "смт.Заложці", "locations": [{"title": "Замок (мур.)", "address": "вул.Шкiльна", "lanlng": {"lat": 49.79375169999999, "lng": 25.3739849}}, {"title": "Костел Св.Антонiя (руїни) (мур.)", "address": "вул.Шкiльна", "lanlng": {"lat": 49.79375169999999, "lng": 25.3739849}}, {"title": "Покровська церква (мур.)", "address": "вул.Зелена", "lanlng": {"lat": 49.79375169999999, "lng": 25.3739849}}, {"title": "Дзвiниця Покровської церкви (мур.)", "address": "вул.Зелена", "lanlng": {"lat": 49.79375169999999, "lng": 25.3739849}}]}, {"address": "Козівський район", "locations": [{"title": "Успенська церква (дер.)", "address": "с.Конюхи", "lanlng": {"lat": 49.55804910000001, "lng": 25.0526008}}, {"title": "Дзвiниця Успенської церкви (дер.)", "address": "с.Конюхи", "lanlng": {"lat": 49.55804910000001, "lng": 25.0526008}}]}, {"address": "Кременецький район", "locations": []}, {"address": "м. Кременець", "locations": [{"title": "Замок (руїни) (мур.)", "address": "вул.Замкова", "lanlng": {"lat": 50.1078135, "lng": 25.7276661}}, {"title": "Ансамбль колегiуму (мур.)", "address": "вул.Ліцейна, 1", "lanlng": {"lat": 50.1078135, "lng": 25.7276661}}, {"title": "Костел Св.Iгнатiя Лойоли (мур.)", "address": "вул.Ліцейна, 1", "lanlng": {"lat": 50.1078135, "lng": 25.7276661}}, {"title": "Південний навчальний корпус (мур.)", "address": "вул.Ліцейна, 1", "lanlng": {"lat": 50.1078135, "lng": 25.7276661}}, {"title": "Північний навчальний корпус (мур.)", "address": "вул.Ліцейна, 1", "lanlng": {"lat": 50.1078135, "lng": 25.7276661}}, {"title": "Парк", "address": "вул.Ліцейна, 1", "lanlng": {"lat": 50.1078135, "lng": 25.7276661}}, {"title": "Францисканський монастир (мур.)", "address": "вул.Шевченка, 57", "lanlng": {"lat": 50.0964231, "lng": 25.7262307}}, {"title": "Собор Св.Миколи (мур.)", "address": "вул.Шевченка, 57", "lanlng": {"lat": 50.0964231, "lng": 25.7262307}}, {"title": "Келії (мур.)", "address": "вул.Шевченка, 57", "lanlng": {"lat": 50.0964231, "lng": 25.7262307}}, {"title": "Будинок-музей Ю.Словацького (мур.)", "address": "вул.Словацького, 16", "lanlng": {"lat": 50.0950999, "lng": 25.7219956}}, {"title": "Житловий будинок (дер.)", "address": "вул.Базарна, 7", "lanlng": {"lat": 50.0972436, "lng": 25.7285698}}, {"title": "Житловий будинок \"Близнята\" (мур.)", "address": "вул.Медова, 1", "lanlng": {"lat": 50.0956064, "lng": 25.7255928}}, {"title": "Житловий будинок \"Близнята\" (мур.)", "address": "вул.Медова, 3", "lanlng": {"lat": 50.0956064, "lng": 25.7255928}}, {"title": "Богоявленський монастир (мур.)", "address": "вул.Шевченка, 90", "lanlng": {"lat": 50.1024724, "lng": 25.7281011}}, {"title": "Богоявленський костел (мур.)", "address": "вул.Шевченка, 90", "lanlng": {"lat": 50.1024724, "lng": 25.7281011}}, {"title": "Корпус келiй (мур.)", "address": "вул.Шевченка, 90", "lanlng": {"lat": 50.1024724, "lng": 25.7281011}}, {"title": "Дзвiниця (мур.)", "address": "вул.Шевченка, 90", "lanlng": {"lat": 50.1024724, "lng": 25.7281011}}, {"title": "Житловий будинок, заїзд (дер.)", "address": "вул.Тимка Падури, 3", "lanlng": {"lat": 50.1078135, "lng": 25.7276661}}]}, {"address": "м. Почаїв", "locations": [{"title": "Почаївська лавра (мур.)", "address": "пл.Возз'єднання", "lanlng": {"lat": 50.00056170000001, "lng": 25.5072523}}, {"title": "Успенський собор (мур.)", "address": "пл.Возз'єднання", "lanlng": {"lat": 50.00056170000001, "lng": 25.5072523}}, {"title": "Троїцький собор (мур.)", "address": "пл.Возз'єднання", "lanlng": {"lat": 50.00056170000001, "lng": 25.5072523}}, {"title": "Монастирськi келiї (мур.)", "address": "пл.Возз'єднання", "lanlng": {"lat": 50.00056170000001, "lng": 25.5072523}}, {"title": "Архiєрейський будинок (мур.)", "address": "пл.Возз'єднання", "lanlng": {"lat": 50.00056170000001, "lng": 25.5072523}}, {"title": "Дзвiниця (мур.)", "address": "пл.Возз'єднання", "lanlng": {"lat": 50.00056170000001, "lng": 25.5072523}}, {"title": "Надбрамний корпус (мур.)", "address": "пл.Возз'єднання", "lanlng": {"lat": 50.00056170000001, "lng": 25.5072523}}, {"title": "Всесвятська церква (мур.)", "address": "на цвинтарi", "lanlng": {"lat": 50.00056170000001, "lng": 25.5072523}}, {"title": "Дзвiниця Михайлівської церкви (дер.)", "address": "с.Башуки", "lanlng": {"lat": 50.00056170000001, "lng": 25.5072523}}, {"title": "Каплиця (змiш.)", "address": "с.Пiдлicцi", "lanlng": {"lat": 50.00056170000001, "lng": 25.5072523}}, {"title": "Покровська церква (мур.)", "address": "с.Старий Почаїв", "lanlng": {"lat": 50.0210842, "lng": 25.47824}}]}, {"address": "Підволочинський район", "locations": [{"title": "Замок (мур.)", "address": "м.Скалат", "lanlng": {"lat": 49.4285053, "lng": 25.9712877}}, {"title": "Церква Iоанна Богослова (дер.)", "address": "с.Скорики", "lanlng": {"lat": 49.5964538, "lng": 26.1397929}}]}, {"address": "Підгаєцький район", "locations": []}, {"address": "м. Підгайці", "locations": [{"title": "Успенська церква (мур.)", "address": "вул.Бережанська", "lanlng": {"lat": 49.2796276, "lng": 25.1236008}}, {"title": "Спасо-Преображенська церква (дер.)", "address": "вул.Галицька", "lanlng": {"lat": 49.2744124, "lng": 25.1313297}}, {"title": "Дзвіниця Спасо-Преобра-женської церкви (дер.)", "address": "вул.Галицька", "lanlng": {"lat": 49.2744124, "lng": 25.1313297}}, {"title": "Костел (руїни) (мур._", "address": "вул.Чапаєва", "lanlng": {"lat": 49.2744124, "lng": 25.1313297}}, {"title": "Синагога (мур.)", "address": "вул.Замкова", "lanlng": {"lat": 49.2744124, "lng": 25.1313297}}, {"title": "Церква Св.Бориса i Глiба (дер.)", "address": "с.Шумляни", "lanlng": {"lat": 49.2744124, "lng": 25.1313297}}, {"title": "Дзвіниця церкви Св.Бориса i Глiба (дер.)", "address": "с.Шумляни", "lanlng": {"lat": 49.2744124, "lng": 25.1313297}}]}, {"address": "Теребовлянський район", "locations": []}, {"address": "м. Теребовля", "locations": [{"title": "Замок (руїни) (мур.)", "address": "вул.Підзамче", "lanlng": {"lat": 49.3064385, "lng": 25.6840457}}, {"title": "Церква Cв.Миколи (мур.)", "address": "вул.Князя Василька", "lanlng": {"lat": 49.3073945, "lng": 25.6867845}}, {"title": "Дзвiниця церкви Св.Миколи (мур.)", "address": "вул.Князя Василька", "lanlng": {"lat": 49.3073945, "lng": 25.6867845}}, {"title": "Монастир Кармелiтiв (мур.)", "address": "вул.Шевченка, 3", "lanlng": {"lat": 49.30477330000001, "lng": 25.7049422}}, {"title": "Костел Успiння Дiви Марiї (мур.)", "address": "вул.Шевченка, 3", "lanlng": {"lat": 49.30477330000001, "lng": 25.7049422}}, {"title": "Корпус келiй (мур.)", "address": "вул.Шевченка, 3", "lanlng": {"lat": 49.30477330000001, "lng": 25.7049422}}, {"title": "Мури з 4 нарiжними баштами (мур.)", "address": "вул.Шевченка, 3", "lanlng": {"lat": 49.30477330000001, "lng": 25.7049422}}, {"title": "Надбрамна дзвiниця (мур.)", "address": "вул.Шевченка, 3", "lanlng": {"lat": 49.30477330000001, "lng": 25.7049422}}, {"title": "Угорницький Василiан-ський монастир (руїни) (мур.)", "address": "", "lanlng": {"lat": 49.30477330000001, "lng": 25.7049422}}, {"title": "Церква (мур.)", "address": "", "lanlng": {"lat": 49.30477330000001, "lng": 25.7049422}}, {"title": "Корпус келiй (мур.)", "address": "", "lanlng": {"lat": 49.30477330000001, "lng": 25.7049422}}, {"title": "Надбрамна башта (мур.)", "address": "", "lanlng": {"lat": 49.30477330000001, "lng": 25.7049422}}, {"title": "Мури з баштами (мур.)", "address": "", "lanlng": {"lat": 49.30477330000001, "lng": 25.7049422}}, {"title": "Замок (мур.)", "address": "смт.Микулинці, вул.Хоткевича, 2-а", "lanlng": {"lat": 49.3962315, "lng": 25.605439}}, {"title": "Палац (мур.)", "address": "смт.Микулинці, вул.Хоткевича, 2", "lanlng": {"lat": 49.3962315, "lng": 25.605439}}, {"title": "Троїцький костел (мур.)", "address": "смт.Микулинці, вул.Хоткевича, 11", "lanlng": {"lat": 49.3962315, "lng": 25.605439}}, {"title": "Троїцький костел (мур.)", "address": "c.Долина", "lanlng": {"lat": 49.2117143, "lng": 25.7258765}}, {"title": "Замок (мур.)", "address": "c.Долина", "lanlng": {"lat": 49.2117143, "lng": 25.7258765}}]}, {"address": "Тернопільський район", "locations": [{"title": "Церква Іоанна Предтечi (мур.)", "address": "с.Баворiв", "lanlng": {"lat": 49.4400777, "lng": 25.7183041}}, {"title": "Церква Св.Петра і Павла (мур.)", "address": "с.Буцнiв", "lanlng": {"lat": 49.48005269999999, "lng": 25.5726639}}, {"title": "Дзвіниця церкви Св.Петра i Павла (мур.)", "address": "с.Буцнiв", "lanlng": {"lat": 49.48005269999999, "lng": 25.5726639}}, {"title": "Палац (мур.)", "address": "с.Плотича", "lanlng": {"lat": 49.6239591, "lng": 25.5626162}}]}, {"address": "Чортківський район", "locations": []}, {"address": "м. Чортків", "locations": [{"title": "Церква Вознесіння (дер.)", "address": "вул.Ломоносова", "lanlng": {"lat": 49.0108843, "lng": 25.8026512}}, {"title": "Успенська церква (дер.)", "address": "вул.Котовського", "lanlng": {"lat": 49.0108843, "lng": 25.8026512}}, {"title": "Дзвiниця Успенської церкви (дер.)", "address": "вул.Котовського", "lanlng": {"lat": 49.0108843, "lng": 25.8026512}}, {"title": "Замок Гольських (мур.)", "address": "вул.Замкова", "lanlng": {"lat": 49.0108843, "lng": 25.8026512}}, {"title": "Церква Св.Миколи (дер.)", "address": "с.Нагiрянка", "lanlng": {"lat": 48.9318061, "lng": 25.7385973}}, {"title": "Дзвiниця церкви Св.Миколи (дер.)", "address": "с.Нагiрянка", "lanlng": {"lat": 48.9318061, "lng": 25.7385973}}]}, {"address": "Шумський район", "locations": []}, {"address": "смт.Шумськ", "locations": [{"title": "Спасо-Преображенська церква (мур.)", "address": "вул.Українська, 13", "lanlng": {"lat": 50.1173041, "lng": 26.1170494}}, {"title": "Дзвiниця Спасо-Преобра-женської церкви (мур.)", "address": "вул.Українська, 13", "lanlng": {"lat": 50.1173041, "lng": 26.1170494}}, {"title": "Монастир Св.Iоанна Милостивого (мур.)", "address": "с.Малi Загайцi", "lanlng": {"lat": 50.122577, "lng": 26.1149716}}, {"title": "Церква Св.Iоанна Милостивого (мур.)", "address": "с.Малi Загайцi", "lanlng": {"lat": 50.122577, "lng": 26.1149716}}, {"title": "Корпус келiй (мур.)", "address": "с.Малi Загайцi", "lanlng": {"lat": 50.122577, "lng": 26.1149716}}, {"title": "Церква Св.Михаїла (дер.)", "address": "с.Новостав", "lanlng": {"lat": 50.122577, "lng": 26.1149716}}, {"title": "Дзвiниця церкви Св.Михаїла (дер.)", "address": "с.Новостав", "lanlng": {"lat": 50.122577, "lng": 26.1149716}}]}]}]